Borough,Line,Stop Name,Daytime Routes,Image coords,GTFS Stop ID,Station ID,Complex ID,Division,CBD,Structure,GTFS Latitude,GTFS Longitude,North Direction Label,South Direction Label,ADA,ADA Northbound,ADA Southbound,ADA Notes,Georeference
Bk,4th Av,Atlantic Av-Barclays Ctr,D N R,"3225,6172",R31,27,617,BMT,FALSE,Subway,40.683666,-73.97881,Manhattan,Southbound,1,1,1,,POINT (-73.97881 40.683666)
Bk,4th Av,Union St,R,"3225,6386",R32,28,28,BMT,FALSE,Subway,40.677316,-73.98311,Manhattan,Southbound,0,0,0,,POINT (-73.98311 40.677316)
Bk,4th Av,4 Av-9 St,R,"3221,6568",R33,29,608,BMT,FALSE,Subway,40.670847,-73.988302,Manhattan,Southbound,0,0,0,,POINT (-73.988302 40.670847)
Bk,4th Av,Prospect Av,R,"3224,6659",R34,30,30,BMT,FALSE,Subway,40.665414,-73.992872,Manhattan,Southbound,0,0,0,,POINT (-73.992872 40.665414)
Bk,4th Av,25 St,R,"3219,6755",R35,31,31,BMT,FALSE,Subway,40.660397,-73.998091,Manhattan,Southbound,0,0,0,,POINT (-73.998091 40.660397)
Bk,4th Av,36 St,D N R,"3223,6855",R36,32,32,BMT,FALSE,Subway,40.655144,-74.003549,Manhattan,Southbound,0,0,0,,POINT (-74.003549 40.655144)
Bk,4th Av,45 St,R,"3221,6963",R39,33,33,BMT,FALSE,Subway,40.648939,-74.010006,Manhattan,Southbound,0,0,0,,POINT (-74.010006 40.648939)
Bk,4th Av,53 St,R,"3220,7081",R40,34,34,BMT,FALSE,Subway,40.645069,-74.014034,Manhattan,Southbound,0,0,0,,POINT (-74.014034 40.645069)
Bk,4th Av,59 St,N R,"3224,7200",R41,35,35,BMT,FALSE,Subway,40.641362,-74.017881,Manhattan,Southbound,1,1,1,,POINT (-74.017881 40.641362)
Bk,4th Av,Bay Ridge Av,R,"3187,7309",R42,36,36,BMT,FALSE,Subway,40.634967,-74.023377,Manhattan,Bay Ridge,0,0,0,,POINT (-74.023377 40.634967)
Bk,4th Av,77 St,R,"3188,7428",R43,37,37,BMT,FALSE,Subway,40.629742,-74.02551,Manhattan,Bay Ridge,0,0,0,,POINT (-74.02551 40.629742)
Bk,4th Av,86 St,R,"3189,7543",R44,38,38,BMT,FALSE,Subway,40.622687,-74.028398,Manhattan,Bay Ridge,1,1,1,,POINT (-74.028398 40.622687)
Bk,4th Av,Bay Ridge-95 St,R,"3185,7654",R45,39,39,BMT,FALSE,Subway,40.616622,-74.030876,Manhattan,Last Stop,0,0,0,,POINT (-74.030876 40.616622)
Bk,6th Av - Culver,York St,F,"2804,5273",F18,235,235,IND,FALSE,Subway,40.701397,-73.986751,Manhattan,Southbound,0,0,0,,POINT (-73.986751 40.701397)
Bk,6th Av - Culver,Bergen St,F G,"2825,6444",F20,236,236,IND,FALSE,Subway,40.686145,-73.990862,Northbound,Southbound,0,0,0,,POINT (-73.990862 40.686145)
Bk,6th Av - Culver,Carroll St,F G,"2827,6525",F21,237,237,IND,FALSE,Subway,40.680303,-73.995048,Northbound,Southbound,0,0,0,,POINT (-73.995048 40.680303)
Bk,6th Av - Culver,Smith-9 Sts,F G,"2916,6593",F22,238,238,IND,FALSE,Viaduct,40.67358,-73.995959,Northbound,Southbound,0,0,0,,POINT (-73.995959 40.67358)
Bk,6th Av - Culver,4 Av-9 St,F G,"3147,6593",F23,239,608,IND,FALSE,Viaduct,40.670272,-73.989779,Northbound,Southbound,0,0,0,,POINT (-73.989779 40.670272)
Bk,6th Av - Culver,7 Av,F G,"3347,6594",F24,240,240,IND,FALSE,Subway,40.666271,-73.980305,Northbound,Southbound,1,1,1,,POINT (-73.980305 40.666271)
Bk,6th Av - Culver,15 St-Prospect Park,F G,"3561,6666",F25,241,241,IND,FALSE,Subway,40.660365,-73.979493,Northbound,Southbound,0,0,0,,POINT (-73.979493 40.660365)
Bk,6th Av - Culver,Fort Hamilton Pkwy,F G,"3665,6769",F26,242,242,IND,FALSE,Subway,40.650782,-73.975776,Northbound,Southbound,0,0,0,,POINT (-73.975776 40.650782)
Bk,6th Av - Culver,Church Av,F G,"3782,6879",F27,243,243,IND,FALSE,Subway,40.644041,-73.979678,Northbound,Southbound,1,1,1,,POINT (-73.979678 40.644041)
Bk,6th Av - Culver,Ditmas Av,F,"3833,6957",F29,244,244,IND,FALSE,Elevated,40.636119,-73.978172,Manhattan,Southbound,0,0,0,,POINT (-73.978172 40.636119)
Bk,6th Av - Culver,18 Av,F,"3899,7032",F30,245,245,IND,FALSE,Elevated,40.629755,-73.976971,Manhattan,Southbound,0,0,0,,POINT (-73.976971 40.629755)
Bk,6th Av - Culver,Avenue I,F,"3970,7100",F31,246,246,IND,FALSE,Elevated,40.625322,-73.976127,Manhattan,Southbound,0,0,0,,POINT (-73.976127 40.625322)
Bk,6th Av - Culver,Bay Pkwy,F,"4038,7166",F32,247,247,IND,FALSE,Elevated,40.620769,-73.975264,Manhattan,Southbound,0,0,0,,POINT (-73.975264 40.620769)
Bk,6th Av - Culver,Avenue N,F,"4103,7231",F33,248,248,IND,FALSE,Elevated,40.61514,-73.974197,Manhattan,Southbound,0,0,0,,POINT (-73.974197 40.61514)
Bk,6th Av - Culver,Avenue P,F,"4168,7302",F34,249,249,IND,FALSE,Elevated,40.608944,-73.973022,Manhattan,Southbound,0,0,0,,POINT (-73.973022 40.608944)
Bk,6th Av - Culver,Kings Hwy,F,"4237,7370",F35,250,250,IND,FALSE,Elevated,40.603217,-73.972361,Manhattan,Southbound,0,0,0,,POINT (-73.972361 40.603217)
Bk,6th Av - Culver,Avenue U,F,"4303,7429",F36,251,251,IND,FALSE,Elevated,40.596063,-73.973357,Manhattan,Coney Island,0,0,0,,POINT (-73.973357 40.596063)
Bk,6th Av - Culver,Avenue X,F,"4374,7506",F38,252,252,IND,FALSE,Elevated,40.58962,-73.97425,Manhattan,Coney Island,0,0,0,,POINT (-73.97425 40.58962)
Bk,6th Av - Culver,Neptune Av,F,"4439,7575",F39,253,253,IND,FALSE,Elevated,40.581011,-73.974574,Manhattan,Coney Island,0,0,0,,POINT (-73.974574 40.581011)
Bk,8th Av - Fulton St,High St,A C,"2747,5679",A40,173,173,IND,FALSE,Subway,40.699337,-73.990531,Manhattan,Outbound,0,0,0,,POINT (-73.990531 40.699337)
Bk,8th Av - Fulton St,Jay St-MetroTech,A C F,"2765,5890",A41,174,636,IND,FALSE,Subway,40.692338,-73.987342,Manhattan,Outbound,1,1,1,,POINT (-73.987342 40.692338)
Bk,8th Av - Fulton St,Hoyt-Schermerhorn Sts,A C G,"2901,6334",A42,175,175,IND,FALSE,Subway,40.688484,-73.985001,Westbound,Queens,0,0,0,,POINT (-73.985001 40.688484)
Bk,8th Av - Fulton St,Lafayette Av,C,"3504,5876",A43,176,176,IND,FALSE,Subway,40.686113,-73.973946,Manhattan,Outbound,0,0,0,,POINT (-73.973946 40.686113)
Bk,8th Av - Fulton St,Clinton-Washington Avs,C,"3824,5834",A44,177,177,IND,FALSE,Subway,40.683263,-73.965838,Manhattan,Outbound,0,0,0,,POINT (-73.965838 40.683263)
Bk,8th Av - Fulton St,Franklin Av,C,"3939,5737",A45,178,627,IND,FALSE,Subway,40.68138,-73.956848,Manhattan,Outbound,1,1,1,,POINT (-73.956848 40.68138)
Bk,8th Av - Fulton St,Nostrand Av,A C,"4049,5610",A46,179,179,IND,FALSE,Subway,40.680438,-73.950426,Manhattan,Outbound,0,0,0,,POINT (-73.950426 40.680438)
Bk,8th Av - Fulton St,Kingston-Throop Avs,C,"4181,5483",A47,180,180,IND,FALSE,Subway,40.679921,-73.940858,Manhattan,Outbound,0,0,0,,POINT (-73.940858 40.679921)
Bk,8th Av - Fulton St,Utica Av,A C,"4320,5347",A48,181,181,IND,FALSE,Subway,40.679364,-73.930729,Manhattan,Outbound,1,1,1,,POINT (-73.930729 40.679364)
Bk,8th Av - Fulton St,Ralph Av,C,"4417,5244",A49,182,182,IND,FALSE,Subway,40.678822,-73.920786,Manhattan,Outbound,0,0,0,,POINT (-73.920786 40.678822)
Bk,8th Av - Fulton St,Rockaway Av,C,"4520,5139",A50,183,183,IND,FALSE,Subway,40.67834,-73.911946,Manhattan,Outbound,0,0,0,,POINT (-73.911946 40.67834)
Bk,8th Av - Fulton St,Broadway Junction,A C,"4718,4946",A51,184,621,IND,FALSE,Subway,40.678334,-73.905316,Manhattan,Outbound,0,0,0,,POINT (-73.905316 40.678334)
Bk,8th Av - Fulton St,Euclid Av,A C,"5173,4767",A55,188,188,IND,FALSE,Subway,40.675377,-73.872106,Manhattan,Queens,1,1,1,,POINT (-73.872106 40.675377)
Bk,8th Av - Fulton St,Liberty Av,C,"4926,4914",A52,185,185,IND,FALSE,Subway,40.674542,-73.896548,Manhattan,Outbound,0,0,0,,POINT (-73.896548 40.674542)
Bk,8th Av - Fulton St,Shepherd Av,C,"5106,4820",A54,187,187,IND,FALSE,Subway,40.67413,-73.88075,Manhattan,Outbound,0,0,0,,POINT (-73.88075 40.67413)
Bk,8th Av - Fulton St,Van Siclen Av,C,"5036,4899",A53,186,186,IND,FALSE,Subway,40.67271,-73.890358,Manhattan,Outbound,0,0,0,,POINT (-73.890358 40.67271)
Bk,Broadway,Court St,R,"2630,5888",R28,24,620,BMT,FALSE,Subway,40.6941,-73.991777,Manhattan,Southbound,0,0,0,,POINT (-73.991777 40.6941)
Bk,Broadway,Jay St-MetroTech,R,"2841,5888",R29,25,636,BMT,FALSE,Subway,40.69218,-73.985942,Manhattan,Southbound,1,1,1,,POINT (-73.985942 40.69218)
Bk,Broadway - Brighton,DeKalb Av,B Q R,"3177,5856",R30,26,26,BMT,FALSE,Subway,40.690635,-73.981824,Manhattan,Southbound,1,1,1,,POINT (-73.981824 40.690635)
Bk,Broadway - Brighton,Atlantic Av-Barclays Ctr,B Q,"3430,6047",D24,40,617,BMT,FALSE,Subway,40.68446,-73.97689,Manhattan,Southbound,1,1,1,,POINT (-73.97689 40.68446)
Bk,Broadway - Brighton,7 Av,B Q,"3562,6178",D25,41,41,BMT,FALSE,Subway,40.67705,-73.972367,Manhattan,Southbound,0,0,0,,POINT (-73.972367 40.67705)
Bk,Broadway - Brighton,Prospect Park,B Q S,"3938,6551",D26,42,42,BMT,FALSE,Open Cut,40.661614,-73.962246,Northbound,Southbound,1,1,1,,POINT (-73.962246 40.661614)
Bk,Broadway - Brighton,Parkside Av,Q,"3995,6610",D27,43,43,BMT,FALSE,Open Cut,40.655292,-73.961495,Manhattan,Southbound,0,0,0,,POINT (-73.961495 40.655292)
Bk,Broadway - Brighton,Church Av,B Q,"4052,6669",D28,44,44,BMT,FALSE,Open Cut,40.650527,-73.962982,Manhattan,Southbound,0,0,0,,POINT (-73.962982 40.650527)
Bk,Broadway - Brighton,Beverley Rd,Q,"4116,6732",D29,45,45,BMT,FALSE,Open Cut,40.644031,-73.964492,Manhattan,Southbound,0,0,0,,POINT (-73.964492 40.644031)
Bk,Broadway - Brighton,Cortelyou Rd,Q,"4177,6793",D30,46,46,BMT,FALSE,Open Cut,40.640927,-73.963891,Manhattan,Southbound,0,0,0,,POINT (-73.963891 40.640927)
Bk,Broadway - Brighton,Newkirk Plaza,B Q,"4239,6850",D31,47,47,BMT,FALSE,Open Cut,40.635082,-73.962793,Manhattan,Southbound,0,0,0,,POINT (-73.962793 40.635082)
Bk,Broadway - Brighton,Avenue H,Q,"4293,6914",D32,48,48,BMT,FALSE,Open Cut,40.62927,-73.961639,Manhattan,Southbound,1,1,1,,POINT (-73.961639 40.62927)
Bk,Broadway - Brighton,Avenue J,Q,"4357,6976",D33,49,49,BMT,FALSE,Open Cut,40.625039,-73.960803,Manhattan,Southbound,0,0,0,,POINT (-73.960803 40.625039)
Bk,Broadway - Brighton,Avenue M,Q,"4415,7040",D34,50,50,BMT,FALSE,Open Cut,40.617618,-73.959399,Manhattan,Southbound,0,0,0,,POINT (-73.959399 40.617618)
Bk,Broadway - Brighton,Kings Hwy,B Q,"4475,7095",D35,51,51,BMT,FALSE,Open Cut,40.60867,-73.957734,Manhattan,Southbound,1,1,1,,POINT (-73.957734 40.60867)
Bk,Broadway - Brighton,Avenue U,Q,"4543,7161",D37,52,52,BMT,FALSE,Open Cut,40.5993,-73.955929,Manhattan,Southbound,0,0,0,,POINT (-73.955929 40.5993)
Bk,Broadway - Brighton,Neck Rd,Q,"4617,7237",D38,53,53,BMT,FALSE,Open Cut,40.595246,-73.955161,Manhattan,Southbound,0,0,0,,POINT (-73.955161 40.595246)
Bk,Broadway - Brighton,Sheepshead Bay,B Q,"4691,7311",D39,54,54,BMT,FALSE,Open Cut,40.586896,-73.954155,Manhattan,Southbound,0,0,0,,POINT (-73.954155 40.586896)
Bk,Broadway - Brighton,Brighton Beach,B Q,"4770,7391",D40,55,55,BMT,FALSE,Elevated,40.577621,-73.961376,Manhattan,Southbound,0,0,0,,POINT (-73.961376 40.577621)
Bk,Broadway - Brighton,Ocean Pkwy,Q,"4646,7574",D41,56,56,BMT,FALSE,Elevated,40.576312,-73.968501,Manhattan,Coney Island,0,0,0,,POINT (-73.968501 40.576312)
Bk,Broadway - Brighton,W 8 St-NY Aquarium,F Q,"4488,7700",D42,57,57,BMT,FALSE,Elevated,40.576127,-73.975939,Manhattan,Coney Island,0,0,0,,POINT (-73.975939 40.576127)
Bk,Canarsie,Bedford Av,L,"2612,4410",L08,120,120,BMT,FALSE,Subway,40.717304,-73.956872,Manhattan,Outbound,1,1,1,,POINT (-73.956872 40.717304)
Bk,Canarsie,Graham Av,L,"3003,4233",L11,122,122,BMT,FALSE,Subway,40.714565,-73.944053,Manhattan,Outbound,0,0,0,,POINT (-73.944053 40.714565)
Bk,Canarsie,Lorimer St,L,"2870,4353",L10,121,629,BMT,FALSE,Subway,40.714063,-73.950275,Manhattan,Outbound,1,1,1,,POINT (-73.950275 40.714063)
Bk,Canarsie,Grand St,L,"3108,4326",L12,123,123,BMT,FALSE,Subway,40.711926,-73.94067,Manhattan,Outbound,1,1,1,,POINT (-73.94067 40.711926)
Bk,Canarsie,Montrose Av,L,"3233,4408",L13,124,124,BMT,FALSE,Subway,40.707739,-73.93985,Manhattan,Outbound,0,0,0,,POINT (-73.93985 40.707739)
Bk,Canarsie,Jefferson St,L,"3613,4407",L15,126,126,BMT,FALSE,Subway,40.706607,-73.922913,Manhattan,Outbound,0,0,0,,POINT (-73.922913 40.706607)
Bk,Canarsie,Morgan Av,L,"3445,4406",L14,125,125,BMT,FALSE,Subway,40.706152,-73.933147,Manhattan,Outbound,0,0,0,,POINT (-73.933147 40.706152)
Bk,Canarsie,DeKalb Av,L,"3796,4399",L16,127,127,BMT,FALSE,Subway,40.703811,-73.918425,Manhattan,Outbound,0,0,0,,POINT (-73.918425 40.703811)
Bk,Canarsie,Myrtle-Wyckoff Avs,L,"3968,4406",L17,128,630,BMT,FALSE,Subway,40.699814,-73.911586,Manhattan,Outbound,1,1,1,,POINT (-73.911586 40.699814)
Bk,Canarsie,Wilson Av,L,"4343,4517",L20,130,130,BMT,FALSE,Subway,40.688764,-73.904046,Manhattan,Outbound,2,1,0,Manhattan-bound only,POINT (-73.904046 40.688764)
Bk,Canarsie,Bushwick Av-Aberdeen St,L,"4490,4659",L21,131,131,BMT,FALSE,Subway,40.682829,-73.905249,Manhattan,Outbound,0,0,0,,POINT (-73.905249 40.682829)
Bk,Canarsie,Broadway Junction,L,"4680,4844",L22,132,621,BMT,FALSE,Elevated,40.678856,-73.90324,Manhattan,Outbound,0,0,0,,POINT (-73.90324 40.678856)
Bk,Canarsie,Atlantic Av,L,"4911,5084",L24,133,133,BMT,FALSE,Elevated,40.675345,-73.903097,Manhattan,Canarsie,0,0,0,,POINT (-73.903097 40.675345)
Bk,Canarsie,Sutter Av,L,"5075,5248",L25,134,134,BMT,FALSE,Elevated,40.669367,-73.901975,Manhattan,Canarsie,0,0,0,,POINT (-73.901975 40.669367)
Bk,Canarsie,Livonia Av,L,"5244,5415",L26,135,135,BMT,FALSE,Elevated,40.664038,-73.900571,Manhattan,Canarsie,1,1,1,,POINT (-73.900571 40.664038)
Bk,Canarsie,New Lots Av,L,"5371,5540",L27,136,136,BMT,FALSE,Elevated,40.658733,-73.899232,Manhattan,Canarsie,0,0,0,,POINT (-73.899232 40.658733)
Bk,Canarsie,East 105 St,L,"5393,5702",L28,137,137,BMT,FALSE,At Grade,40.650573,-73.899485,Manhattan,Canarsie,0,0,0,,POINT (-73.899485 40.650573)
Bk,Canarsie,Canarsie-Rockaway Pkwy,L,"5393,5867",L29,138,138,BMT,FALSE,At Grade,40.646654,-73.90185,Manhattan,Last Stop,1,1,1,,POINT (-73.90185 40.646654)
Bk,Clark St,Clark St,2 3,"2564,5794",231,334,334,IRT,FALSE,Subway,40.697466,-73.993086,Manhattan,Outbound,0,0,0,,POINT (-73.993086 40.697466)
Bk,Clark St,Borough Hall,2 3,"2630,6112",232,335,620,IRT,FALSE,Subway,40.693219,-73.989998,Manhattan,Outbound,1,1,1,,POINT (-73.989998 40.693219)
Bk,Crosstown,Greenpoint Av,G,"2618,4051",G26,283,283,IND,FALSE,Subway,40.731352,-73.954449,Queens,Southbound,1,1,1,,POINT (-73.954449 40.731352)
Bk,Crosstown,Nassau Av,G,"2639,4207",G28,284,284,IND,FALSE,Subway,40.724635,-73.951277,Queens,Southbound,0,0,0,,POINT (-73.951277 40.724635)
Bk,Crosstown,Metropolitan Av,G,"2873,4442",G29,285,629,IND,FALSE,Subway,40.712792,-73.951418,Queens,Southbound,1,1,1,,POINT (-73.951418 40.712792)
Bk,Crosstown,Broadway,G,"3158,4729",G30,286,286,IND,FALSE,Subway,40.706092,-73.950308,Queens,Southbound,0,0,0,,POINT (-73.950308 40.706092)
Bk,Crosstown,Flushing Av,G,"3436,5061",G31,287,287,IND,FALSE,Subway,40.700377,-73.950234,Queens,Southbound,0,0,0,,POINT (-73.950234 40.700377)
Bk,Crosstown,Myrtle-Willoughby Avs,G,"3438,5186",G32,288,288,IND,FALSE,Subway,40.694568,-73.949046,Queens,Southbound,0,0,0,,POINT (-73.949046 40.694568)
Bk,Crosstown,Bedford-Nostrand Avs,G,"3440,5308",G33,289,289,IND,FALSE,Subway,40.689627,-73.953522,Queens,Southbound,0,0,0,,POINT (-73.953522 40.689627)
Bk,Crosstown,Classon Av,G,"3438,5429",G34,290,290,IND,FALSE,Subway,40.688873,-73.96007,Queens,Southbound,0,0,0,,POINT (-73.96007 40.688873)
Bk,Crosstown,Clinton-Washington Avs,G,"3439,5555",G35,291,291,IND,FALSE,Subway,40.688089,-73.966839,Queens,Southbound,0,0,0,,POINT (-73.966839 40.688089)
Bk,Crosstown,Fulton St,G,"3437,5699",G36,292,292,IND,FALSE,Subway,40.687119,-73.975375,Queens,Southbound,0,0,0,,POINT (-73.975375 40.687119)
Bk,Eastern Pky,Borough Hall,4 5,"2626,6074",423,415,620,IRT,FALSE,Subway,40.692404,-73.990151,Manhattan,Outbound,2,1,0,Manhattan-bound only,POINT (-73.990151 40.692404)
Bk,Eastern Pky,Hoyt St,2 3,"2855,6076",233,336,336,IRT,FALSE,Subway,40.690545,-73.985065,Manhattan,Outbound,2,0,1,Outbound only,POINT (-73.985065 40.690545)
Bk,Eastern Pky,Nevins St,2 3 4 5,"3006,6075",234,337,337,IRT,FALSE,Subway,40.688246,-73.980492,Manhattan,Outbound,0,0,0,,POINT (-73.980492 40.688246)
Bk,Eastern Pky,Atlantic Av-Barclays Ctr,2 3 4 5,"3355,6133",235,338,617,IRT,FALSE,Subway,40.684359,-73.977666,Manhattan,Outbound,1,1,1,,POINT (-73.977666 40.684359)
Bk,Eastern Pky,Bergen St,2 3,"3448,6225",236,339,339,IRT,FALSE,Subway,40.680829,-73.975098,Manhattan,Outbound,0,0,0,,POINT (-73.975098 40.680829)
Bk,Eastern Pky,Grand Army Plaza,2 3,"3507,6277",237,340,340,IRT,FALSE,Subway,40.675235,-73.971046,Manhattan,Outbound,0,0,0,,POINT (-73.971046 40.675235)
Bk,Eastern Pky,Eastern Pkwy-Brooklyn Museum,2 3,"3598,6287",238,341,341,IRT,FALSE,Subway,40.671987,-73.964375,Manhattan,Outbound,1,1,1,,POINT (-73.964375 40.671987)
Bk,Eastern Pky,Franklin Av-Medgar Evers College,2 3 4 5,"3910,6283",239,342,626,IRT,FALSE,Subway,40.670682,-73.958131,Manhattan,Outbound,0,0,0,,POINT (-73.958131 40.670682)
Bk,Eastern Pky,Nostrand Av,3,"4346,6127",248,343,343,IRT,FALSE,Subway,40.669847,-73.950466,Manhattan,Outbound,0,0,0,,POINT (-73.950466 40.669847)
Bk,Eastern Pky,Kingston Av,3,"4478,5987",249,344,344,IRT,FALSE,Subway,40.669399,-73.942161,Manhattan,Outbound,0,0,0,,POINT (-73.942161 40.669399)
Bk,Eastern Pky,Crown Hts-Utica Av,3 4,"4622,5859",250,345,345,IRT,FALSE,Subway,40.668897,-73.932942,Manhattan,Outbound,1,1,1,,POINT (-73.932942 40.668897)
Bk,Eastern Pky,New Lots Av,3,"5411,5086",257,352,352,IRT,FALSE,Elevated,40.666235,-73.884079,Manhattan,Last Stop,0,0,0,,POINT (-73.884079 40.666235)
Bk,Eastern Pky,Van Siclen Av,3,"5328,5170",256,351,351,IRT,FALSE,Elevated,40.665449,-73.889395,Manhattan,New Lots,0,0,0,,POINT (-73.889395 40.665449)
Bk,Eastern Pky,Sutter Av-Rutland Rd,3,"4761,5738",251,346,346,IRT,FALSE,Elevated,40.664717,-73.92261,Manhattan,New Lots,0,0,0,,POINT (-73.92261 40.664717)
Bk,Eastern Pky,Pennsylvania Av,3,"5243,5253",255,350,350,IRT,FALSE,Elevated,40.664635,-73.894895,Manhattan,New Lots,0,0,0,,POINT (-73.894895 40.664635)
Bk,Eastern Pky,Junius St,3,"5081,5420",254,349,349,IRT,FALSE,Elevated,40.663515,-73.902447,Manhattan,New Lots,0,0,0,,POINT (-73.902447 40.663515)
Bk,Eastern Pky,Rockaway Av,3,"4979,5527",253,348,348,IRT,FALSE,Elevated,40.662549,-73.908946,Manhattan,New Lots,0,0,0,,POINT (-73.908946 40.662549)
Bk,Eastern Pky,Saratoga Av,3,"4869,5631",252,347,347,IRT,FALSE,Elevated,40.661453,-73.916327,Manhattan,New Lots,0,0,0,,POINT (-73.916327 40.661453)
Bk,Franklin Shuttle,Franklin Av,S,"3974,5769",S01,139,627,BMT,FALSE,Elevated,40.680596,-73.955827,Last Stop,Prospect Park,1,1,1,,POINT (-73.955827 40.680596)
Bk,Franklin Shuttle,Park Pl,S,"3971,6009",S03,141,141,BMT,FALSE,Open Cut,40.674772,-73.957624,Franklin Av,Prospect Park,1,1,1,,POINT (-73.957624 40.674772)
Bk,Franklin Shuttle,Botanic Garden,S,"3972,6396",S04,142,626,BMT,FALSE,Open Cut,40.670343,-73.959245,Franklin Av,Prospect Park,0,0,0,,POINT (-73.959245 40.670343)
Bk,Jamaica,Marcy Av,M J Z,"2924,4890",M16,101,101,BMT,FALSE,Elevated,40.708359,-73.957757,Outbound,Manhattan,1,1,1,,POINT (-73.957757 40.708359)
Bk,Jamaica,Hewes St,M J,"3082,4891",M14,100,100,BMT,FALSE,Elevated,40.70687,-73.953431,Outbound,Manhattan,0,0,0,,POINT (-73.953431 40.70687)
Bk,Jamaica,Lorimer St,M J,"3396,4895",M13,99,99,BMT,FALSE,Elevated,40.703869,-73.947408,Outbound,Manhattan,0,0,0,,POINT (-73.947408 40.703869)
Bk,Jamaica,Flushing Av,M J,"3539,4894",M12,98,98,BMT,FALSE,Elevated,40.70026,-73.941126,Outbound,Manhattan,1,1,1,,POINT (-73.941126 40.70026)
Bk,Jamaica,Myrtle Av,M J Z,"3695,4895",M11,97,97,BMT,FALSE,Elevated,40.697207,-73.935657,Outbound,Manhattan,0,0,0,,POINT (-73.935657 40.697207)
Bk,Jamaica,Kosciuszko St,J,"3868,4895",J31,96,96,BMT,FALSE,Elevated,40.693342,-73.928814,Outbound,Manhattan,0,0,0,,POINT (-73.928814 40.693342)
Bk,Jamaica,Cypress Hills,J,"5152,4188",J19,86,86,BMT,FALSE,Elevated,40.689941,-73.87255,Queens,Manhattan,0,0,0,,POINT (-73.87255 40.689941)
Bk,Jamaica,Gates Av,J Z,"4043,4918",J30,95,95,BMT,FALSE,Elevated,40.68963,-73.92227,Outbound,Manhattan,0,0,0,,POINT (-73.92227 40.68963)
Bk,Jamaica,Halsey St,J,"4218,4903",J29,94,94,BMT,FALSE,Elevated,40.68637,-73.916559,Outbound,Manhattan,0,0,0,,POINT (-73.916559 40.68637)
Bk,Jamaica,Crescent St,J Z,"5145,4341",J20,87,87,BMT,FALSE,Elevated,40.683194,-73.873785,Outbound,Manhattan,0,0,0,,POINT (-73.873785 40.683194)
Bk,Jamaica,Chauncey St,J Z,"4406,4912",J28,93,93,BMT,FALSE,Elevated,40.682893,-73.910456,Outbound,Manhattan,0,0,0,,POINT (-73.910456 40.682893)
Bk,Jamaica,Norwood Av,J Z,"5066,4493",J21,88,88,BMT,FALSE,Elevated,40.68141,-73.880039,Outbound,Manhattan,0,0,0,,POINT (-73.880039 40.68141)
Bk,Jamaica,Cleveland St,J,"4981,4566",J22,89,89,BMT,FALSE,Elevated,40.679947,-73.884639,Outbound,Manhattan,0,0,0,,POINT (-73.884639 40.679947)
Bk,Jamaica,Broadway Junction,J Z,"4669,4887",J27,92,621,BMT,FALSE,Elevated,40.679498,-73.904512,Outbound,Manhattan,0,0,0,,POINT (-73.904512 40.679498)
Bk,Jamaica,Van Siclen Av,J Z,"4911,4650",J23,90,90,BMT,FALSE,Elevated,40.678024,-73.891688,Outbound,Manhattan,0,0,0,,POINT (-73.891688 40.678024)
Bk,Jamaica,Alabama Av,J Z,"4827,4739",J24,91,91,BMT,FALSE,Elevated,40.676992,-73.898654,Outbound,Manhattan,0,0,0,,POINT (-73.898654 40.676992)
Bk,Liberty Av,Grant Av,A,"5250,4707",A57,189,189,IND,FALSE,Subway,40.677044,-73.86505,Manhattan,Queens,0,0,0,,POINT (-73.86505 40.677044)
Bk,Myrtle Av,Myrtle-Wyckoff Avs,M,"4009,4408",M08,112,630,BMT,FALSE,Elevated,40.69943,-73.912385,Inbound,Middle Village,1,1,1,,POINT (-73.912385 40.69943)
Bk,Myrtle Av,Knickerbocker Av,M,"3966,4641",M09,113,113,BMT,FALSE,Elevated,40.698664,-73.919711,Inbound,Middle Village,0,0,0,,POINT (-73.919711 40.698664)
Bk,Myrtle Av,Central Av,M,"3856,4754",M10,114,114,BMT,FALSE,Elevated,40.697857,-73.927397,Inbound,Middle Village,0,0,0,,POINT (-73.927397 40.697857)
Bk,Nostrand,President St-Medgar Evers College,2 5,"4269,6349",241,353,353,IRT,FALSE,Subway,40.667883,-73.950683,Manhattan,Flatbush,0,0,0,,POINT (-73.950683 40.667883)
Bk,Nostrand,Sterling St,2 5,"4350,6434",242,354,354,IRT,FALSE,Subway,40.662742,-73.95085,Manhattan,Flatbush,0,0,0,,POINT (-73.95085 40.662742)
Bk,Nostrand,Winthrop St,2 5,"4435,6517",243,355,355,IRT,FALSE,Subway,40.656652,-73.9502,Manhattan,Flatbush,0,0,0,,POINT (-73.9502 40.656652)
Bk,Nostrand,Church Av,2 5,"4516,6600",244,356,356,IRT,FALSE,Subway,40.650843,-73.949575,Manhattan,Flatbush,1,1,1,,POINT (-73.949575 40.650843)
Bk,Nostrand,Beverly Rd,2 5,"4602,6686",245,357,357,IRT,FALSE,Subway,40.645098,-73.948959,Manhattan,Flatbush,0,0,0,,POINT (-73.948959 40.645098)
Bk,Nostrand,Newkirk Av-Little Haiti,2 5,"4687,6768",246,358,358,IRT,FALSE,Subway,40.639967,-73.948411,Manhattan,Flatbush,0,0,0,,POINT (-73.948411 40.639967)
Bk,Nostrand,Flatbush Av-Brooklyn College,2 5,"4769,6850",247,359,359,IRT,FALSE,Subway,40.632836,-73.947642,Manhattan,Last Stop,1,1,1,,POINT (-73.947642 40.632836)
Bk,Sea Beach,8 Av,N,"3286,7286",N02,71,71,BMT,FALSE,Open Cut,40.635064,-74.011719,Manhattan,Coney Island,1,1,1,,POINT (-74.011719 40.635064)
Bk,Sea Beach,Fort Hamilton Pkwy,N,"3420,7278",N03,72,72,BMT,FALSE,Open Cut,40.631386,-74.005351,Manhattan,Coney Island,0,0,0,,POINT (-74.005351 40.631386)
Bk,Sea Beach,New Utrecht Av,N,"3550,7282",N04,73,615,BMT,FALSE,Open Cut,40.624842,-73.996353,Manhattan,Coney Island,1,1,1,,POINT (-73.996353 40.624842)
Bk,Sea Beach,18 Av,N,"3840,7281",N05,74,74,BMT,FALSE,Open Cut,40.620671,-73.990414,Manhattan,Coney Island,0,0,0,,POINT (-73.990414 40.620671)
Bk,Sea Beach,20 Av,N,"3966,7285",N06,75,75,BMT,FALSE,Open Cut,40.61741,-73.985026,Manhattan,Coney Island,0,0,0,,POINT (-73.985026 40.61741)
Bk,Sea Beach,Bay Pkwy,N,"4068,7341",N07,76,76,BMT,FALSE,Open Cut,40.611815,-73.981848,Manhattan,Coney Island,0,0,0,,POINT (-73.981848 40.611815)
Bk,Sea Beach,Kings Hwy,N,"4172,7442",N08,77,77,BMT,FALSE,Open Cut,40.603923,-73.980353,Manhattan,Coney Island,0,0,0,,POINT (-73.980353 40.603923)
Bk,Sea Beach,Avenue U,N,"4271,7541",N09,78,78,BMT,FALSE,Open Cut,40.597473,-73.979137,Manhattan,Coney Island,0,0,0,,POINT (-73.979137 40.597473)
Bk,Sea Beach,86 St,N,"4373,7645",N10,79,79,BMT,FALSE,Open Cut,40.592721,-73.97823,Manhattan,Coney Island,0,0,0,,POINT (-73.97823 40.592721)
Bk,Sea Beach / West End / Culver / Brighton,Coney Island-Stillwell Av,D F N Q,"4264,7876",D43,58,58,BMT,FALSE,Viaduct,40.577422,-73.981233,Manhattan,Last Stop,1,1,1,,POINT (-73.981233 40.577422)
Bk,West End,9 Av,D,"3332,6951",B12,59,59,BMT,FALSE,Open Cut,40.646292,-73.994324,Manhattan,Southbound,0,0,0,,POINT (-73.994324 40.646292)
Bk,West End,Fort Hamilton Pkwy,D,"3405,7018",B13,60,60,BMT,FALSE,Elevated,40.640914,-73.994304,Manhattan,Southbound,0,0,0,,POINT (-73.994304 40.640914)
Bk,West End,50 St,D,"3481,7093",B14,61,61,BMT,FALSE,Elevated,40.63626,-73.994791,Manhattan,Southbound,0,0,0,,POINT (-73.994791 40.63626)
Bk,West End,55 St,D,"3552,7168",B15,62,62,BMT,FALSE,Elevated,40.631435,-73.995476,Manhattan,Southbound,0,0,0,,POINT (-73.995476 40.631435)
Bk,West End,62 St,D,"3629,7242",B16,63,615,BMT,FALSE,Elevated,40.626472,-73.996895,Manhattan,Southbound,1,1,1,,POINT (-73.996895 40.626472)
Bk,West End,71 St,D,"3700,7319",B17,64,64,BMT,FALSE,Elevated,40.619589,-73.998864,Manhattan,Southbound,0,0,0,,POINT (-73.998864 40.619589)
Bk,West End,79 St,D,"3776,7389",B18,65,65,BMT,FALSE,Elevated,40.613501,-74.00061,Manhattan,Southbound,0,0,0,,POINT (-74.00061 40.613501)
Bk,West End,18 Av,D,"3850,7462",B19,66,66,BMT,FALSE,Elevated,40.607954,-74.001736,Manhattan,Southbound,0,0,0,,POINT (-74.001736 40.607954)
Bk,West End,20 Av,D,"3923,7535",B20,67,67,BMT,FALSE,Elevated,40.604556,-73.998168,Manhattan,Southbound,0,0,0,,POINT (-73.998168 40.604556)
Bk,West End,Bay Pkwy,D,"4000,7615",B21,68,68,BMT,FALSE,Elevated,40.601875,-73.993728,Manhattan,Southbound,1,1,1,,POINT (-73.993728 40.601875)
Bk,West End,25 Av,D,"4072,7687",B22,69,69,BMT,FALSE,Elevated,40.597704,-73.986829,Manhattan,Coney Island,0,0,0,,POINT (-73.986829 40.597704)
Bk,West End,Bay 50 St,D,"4145,7763",B23,70,70,BMT,FALSE,Elevated,40.588841,-73.983765,Manhattan,Coney Island,0,0,0,,POINT (-73.983765 40.588841)
Bx,Broadway - 7Av,Van Cortlandt Park-242 St,1,"612,810",101,293,293,IRT,FALSE,Elevated,40.889248,-73.898583,Last Stop,Manhattan,0,0,0,,POINT (-73.898583 40.889248)
Bx,Broadway - 7Av,238 St,1,"612,891",103,294,294,IRT,FALSE,Elevated,40.884667,-73.90087,Van Cortlandt,Manhattan,0,0,0,,POINT (-73.90087 40.884667)
Bx,Broadway - 7Av,231 St,1,"612,978",104,295,295,IRT,FALSE,Elevated,40.878856,-73.904834,Van Cortlandt,Manhattan,1,1,1,,POINT (-73.904834 40.878856)
Bx,Concourse,Norwood-205 St,D,"1986,987",D01,210,210,IND,FALSE,Subway,40.874811,-73.878855,Last Stop,Manhattan,0,0,0,,POINT (-73.878855 40.874811)
Bx,Concourse,Bedford Park Blvd,B D,"1852,1074",D03,211,211,IND,FALSE,Subway,40.873244,-73.887138,Northbound,Manhattan,1,1,1,,POINT (-73.887138 40.873244)
Bx,Concourse,Kingsbridge Rd,B D,"1852,1154",D04,212,212,IND,FALSE,Subway,40.866978,-73.893509,Northbound,Manhattan,1,1,1,,POINT (-73.893509 40.866978)
Bx,Concourse,Fordham Rd,B D,"1851,1243",D05,213,213,IND,FALSE,Subway,40.861296,-73.897749,Northbound,Manhattan,0,0,0,,POINT (-73.897749 40.861296)
Bx,Concourse,182-183 Sts,B D,"1851,1329",D06,214,214,IND,FALSE,Subway,40.856093,-73.900741,Northbound,Manhattan,0,0,0,,POINT (-73.900741 40.856093)
Bx,Concourse,Tremont Av,B D,"1850,1409",D07,215,215,IND,FALSE,Subway,40.85041,-73.905227,Northbound,Manhattan,1,1,1,,POINT (-73.905227 40.85041)
Bx,Concourse,174-175 Sts,B D,"1850,1498",D08,216,216,IND,FALSE,Subway,40.8459,-73.910136,Northbound,Manhattan,0,0,0,,POINT (-73.910136 40.8459)
Bx,Concourse,170 St,B D,"1853,1659",D09,217,217,IND,FALSE,Subway,40.839306,-73.9134,Northbound,Manhattan,0,0,0,,POINT (-73.9134 40.839306)
Bx,Concourse,167 St,B D,"1856,1749",D10,218,218,IND,FALSE,Subway,40.833771,-73.91844,Northbound,Manhattan,0,0,0,,POINT (-73.91844 40.833771)
Bx,Concourse,161 St-Yankee Stadium,B D,"1650,1923",D11,219,604,IND,FALSE,Subway,40.827905,-73.925651,Northbound,Manhattan,1,1,1,,POINT (-73.925651 40.827905)
Bx,Dyre Av,Eastchester-Dyre Av,5,"2894,736",501,442,442,IRT,FALSE,At Grade,40.8883,-73.830834,Last Stop,Manhattan,0,0,0,,POINT (-73.830834 40.8883)
Bx,Dyre Av,Baychester Av,5,"2895,905",502,443,443,IRT,FALSE,Open Cut,40.878663,-73.838591,Eastchester,Manhattan,0,0,0,,POINT (-73.838591 40.878663)
Bx,Dyre Av,Gun Hill Rd,5,"2896,1073",503,444,444,IRT,FALSE,Open Cut,40.869526,-73.846384,Eastchester,Manhattan,1,1,1,,POINT (-73.846384 40.869526)
Bx,Dyre Av,Pelham Pkwy,5,"2805,1288",504,445,445,IRT,FALSE,Open Cut,40.858985,-73.855359,Eastchester,Manhattan,0,0,0,,POINT (-73.855359 40.858985)
Bx,Dyre Av,Morris Park,5,"2681,1411",505,446,446,IRT,FALSE,Open Cut,40.854364,-73.860495,Eastchester,Manhattan,0,0,0,,POINT (-73.860495 40.854364)
Bx,Jerome Av,Woodlawn,4,"1685,810",401,378,378,IRT,FALSE,Elevated,40.886037,-73.878751,Last Stop,Manhattan,0,0,0,,POINT (-73.878751 40.886037)
Bx,Jerome Av,Mosholu Pkwy,4,"1687,993",402,379,379,IRT,FALSE,Elevated,40.87975,-73.884655,Woodlawn,Manhattan,0,0,0,,POINT (-73.884655 40.87975)
Bx,Jerome Av,Bedford Park Blvd-Lehman College,4,"1688,1076",405,380,380,IRT,FALSE,Elevated,40.873412,-73.890064,Northbound,Manhattan,0,0,0,,POINT (-73.890064 40.873412)
Bx,Jerome Av,Kingsbridge Rd,4,"1682,1157",406,381,381,IRT,FALSE,Elevated,40.86776,-73.897174,Northbound,Manhattan,0,0,0,,POINT (-73.897174 40.86776)
Bx,Jerome Av,Fordham Rd,4,"1684,1244",407,382,382,IRT,FALSE,Elevated,40.862803,-73.901034,Northbound,Manhattan,1,1,1,,POINT (-73.901034 40.862803)
Bx,Jerome Av,183 St,4,"1684,1327",408,383,383,IRT,FALSE,Elevated,40.858407,-73.903879,Northbound,Manhattan,0,0,0,,POINT (-73.903879 40.858407)
Bx,Jerome Av,Burnside Av,4,"1685,1409",409,384,384,IRT,FALSE,Elevated,40.853453,-73.907684,Northbound,Manhattan,0,0,0,,POINT (-73.907684 40.853453)
Bx,Jerome Av,176 St,4,"1682,1492",410,385,385,IRT,FALSE,Elevated,40.84848,-73.911794,Northbound,Manhattan,0,0,0,,POINT (-73.911794 40.84848)
Bx,Jerome Av,Mt Eden Av,4,"1682,1582",411,386,386,IRT,FALSE,Elevated,40.844434,-73.914685,Northbound,Manhattan,0,0,0,,POINT (-73.914685 40.844434)
Bx,Jerome Av,170 St,4,"1688,1662",412,387,387,IRT,FALSE,Elevated,40.840075,-73.917791,Northbound,Manhattan,1,1,1,,POINT (-73.917791 40.840075)
Bx,Jerome Av,167 St,4,"1683,1739",413,388,388,IRT,FALSE,Elevated,40.835537,-73.9214,Northbound,Manhattan,0,0,0,,POINT (-73.9214 40.835537)
Bx,Jerome Av,161 St-Yankee Stadium,4,"1684,1898",414,389,604,IRT,FALSE,Elevated,40.827994,-73.925831,Northbound,Manhattan,1,1,1,,POINT (-73.925831 40.827994)
Bx,Jerome Av,149 St-Grand Concourse,4,"1871,2163",415,390,603,IRT,FALSE,Subway,40.818375,-73.927351,Northbound,Manhattan,0,0,0,,POINT (-73.927351 40.818375)
Bx,Jerome Av,138 St-Grand Concourse,4 5,"1890,2277",416,391,391,IRT,FALSE,Subway,40.813224,-73.929849,Northbound,Manhattan,0,0,0,,POINT (-73.929849 40.813224)
Bx,Lenox - White Plains Rd,Wakefield-241 St,2,"2577,587",201,416,416,IRT,FALSE,Elevated,40.903125,-73.85062,Last Stop,Manhattan,0,0,0,,POINT (-73.85062 40.903125)
Bx,Lenox - White Plains Rd,Nereid Av,2 5,"2595,744",204,417,417,IRT,FALSE,Elevated,40.898379,-73.854376,Northbound,Manhattan,0,0,0,,POINT (-73.854376 40.898379)
Bx,Lenox - White Plains Rd,233 St,2 5,"2595,828",205,418,418,IRT,FALSE,Elevated,40.893193,-73.857473,Northbound,Manhattan,1,1,1,,POINT (-73.857473 40.893193)
Bx,Lenox - White Plains Rd,225 St,2 5,"2594,915",206,419,419,IRT,FALSE,Elevated,40.888022,-73.860341,Northbound,Manhattan,0,0,0,,POINT (-73.860341 40.888022)
Bx,Lenox - White Plains Rd,219 St,2 5,"2594,991",207,420,420,IRT,FALSE,Elevated,40.883895,-73.862633,Northbound,Manhattan,0,0,0,,POINT (-73.862633 40.883895)
Bx,Lenox - White Plains Rd,Gun Hill Rd,2 5,"2591,1077",208,421,421,IRT,FALSE,Elevated,40.87785,-73.866256,Northbound,Manhattan,1,1,1,,POINT (-73.866256 40.87785)
Bx,Lenox - White Plains Rd,Burke Av,2 5,"2595,1159",209,422,422,IRT,FALSE,Elevated,40.871356,-73.867164,Northbound,Manhattan,0,0,0,,POINT (-73.867164 40.871356)
Bx,Lenox - White Plains Rd,Allerton Av,2 5,"2593,1246",210,423,423,IRT,FALSE,Elevated,40.865462,-73.867352,Northbound,Manhattan,0,0,0,,POINT (-73.867352 40.865462)
Bx,Lenox - White Plains Rd,Pelham Pkwy,2 5,"2596,1330",211,424,424,IRT,FALSE,Elevated,40.857192,-73.867615,Northbound,Manhattan,1,1,1,,POINT (-73.867615 40.857192)
Bx,Lenox - White Plains Rd,Bronx Park East,2 5,"2593,1409",212,425,425,IRT,FALSE,Elevated,40.848828,-73.868457,Northbound,Manhattan,0,0,0,,POINT (-73.868457 40.848828)
Bx,Lenox - White Plains Rd,E 180 St,2 5,"2595,1488",213,426,426,IRT,FALSE,Elevated,40.841894,-73.873488,Northbound,Manhattan,1,1,1,,POINT (-73.873488 40.841894)
Bx,Lenox - White Plains Rd,West Farms Sq-E Tremont Av,2 5,"2594,1573",214,427,427,IRT,FALSE,Elevated,40.840295,-73.880049,Northbound,Manhattan,0,0,0,,POINT (-73.880049 40.840295)
Bx,Lenox - White Plains Rd,174 St,2 5,"2595,1655",215,428,428,IRT,FALSE,Elevated,40.837288,-73.887734,Northbound,Manhattan,0,0,0,,POINT (-73.887734 40.837288)
Bx,Lenox - White Plains Rd,Freeman St,2 5,"2595,1743",216,429,429,IRT,FALSE,Elevated,40.829993,-73.891865,Northbound,Manhattan,0,0,0,,POINT (-73.891865 40.829993)
Bx,Lenox - White Plains Rd,Simpson St,2 5,"2595,1824",217,430,430,IRT,FALSE,Elevated,40.824073,-73.893064,Northbound,Manhattan,1,1,1,,POINT (-73.893064 40.824073)
Bx,Lenox - White Plains Rd,Intervale Av,2 5,"2594,1909",218,431,431,IRT,FALSE,Elevated,40.822181,-73.896736,Northbound,Manhattan,0,0,0,,POINT (-73.896736 40.822181)
Bx,Lenox - White Plains Rd,Prospect Av,2 5,"2594,1993",219,432,432,IRT,FALSE,Elevated,40.819585,-73.90177,Northbound,Manhattan,0,0,0,,POINT (-73.90177 40.819585)
Bx,Lenox - White Plains Rd,149 St-Grand Concourse,2 5,"1910,2123",222,435,603,IRT,FALSE,Subway,40.81841,-73.926718,Northbound,Manhattan,0,0,0,,POINT (-73.926718 40.81841)
Bx,Lenox - White Plains Rd,Jackson Av,2 5,"2496,2107",220,433,433,IRT,FALSE,Elevated,40.81649,-73.907807,Northbound,Manhattan,0,0,0,,POINT (-73.907807 40.81649)
Bx,Lenox - White Plains Rd,3 Av-149 St,2 5,"2208,2105",221,434,434,IRT,FALSE,Subway,40.816109,-73.917757,Northbound,Manhattan,1,1,1,,POINT (-73.917757 40.816109)
Bx,Pelham,Pelham Bay Park,6,"3640,1086",601,360,360,IRT,FALSE,Elevated,40.852462,-73.828121,Last Stop,Manhattan,1,1,1,,POINT (-73.828121 40.852462)
Bx,Pelham,Buhre Av,6,"3571,1156",602,361,361,IRT,FALSE,Elevated,40.84681,-73.832569,Pelham Bay,Manhattan,0,0,0,,POINT (-73.832569 40.84681)
Bx,Pelham,Middletown Rd,6,"3502,1229",603,362,362,IRT,FALSE,Elevated,40.843863,-73.836322,Pelham Bay,Manhattan,0,0,0,,POINT (-73.836322 40.843863)
Bx,Pelham,Westchester Sq-E Tremont Av,6,"3436,1293",604,363,363,IRT,FALSE,Elevated,40.839892,-73.842952,Pelham Bay,Manhattan,1,1,1,,POINT (-73.842952 40.839892)
Bx,Pelham,Zerega Av,6,"3365,1367",606,364,364,IRT,FALSE,Elevated,40.836488,-73.847036,Pelham Bay,Manhattan,0,0,0,,POINT (-73.847036 40.836488)
Bx,Pelham,Castle Hill Av,6,"3304,1426",607,365,365,IRT,FALSE,Elevated,40.834255,-73.851222,Pelham Bay,Manhattan,0,0,0,,POINT (-73.851222 40.834255)
Bx,Pelham,Parkchester,6,"3240,1491",608,366,366,IRT,FALSE,Elevated,40.833226,-73.860816,Northbound,Manhattan,0,0,0,,POINT (-73.860816 40.833226)
Bx,Pelham,St Lawrence Av,6,"3166,1566",609,367,367,IRT,FALSE,Elevated,40.831509,-73.867618,Northbound,Manhattan,0,0,0,,POINT (-73.867618 40.831509)
Bx,Pelham,Morrison Av-Soundview,6,"3101,1627",610,368,368,IRT,FALSE,Elevated,40.829521,-73.874516,Northbound,Manhattan,0,0,0,,POINT (-73.874516 40.829521)
Bx,Pelham,Elder Av,6,"3039,1698",611,369,369,IRT,FALSE,Elevated,40.828584,-73.879159,Northbound,Manhattan,0,0,0,,POINT (-73.879159 40.828584)
Bx,Pelham,Whitlock Av,6,"2977,1759",612,370,370,IRT,FALSE,Elevated,40.826525,-73.886283,Northbound,Manhattan,0,0,0,,POINT (-73.886283 40.826525)
Bx,Pelham,Hunts Point Av,6,"2942,1861",613,371,371,IRT,FALSE,Subway,40.820948,-73.890549,Northbound,Manhattan,1,1,1,,POINT (-73.890549 40.820948)
Bx,Pelham,Longwood Av,6,"2941,1946",614,372,372,IRT,FALSE,Subway,40.816104,-73.896435,Northbound,Manhattan,0,0,0,,POINT (-73.896435 40.816104)
Bx,Pelham,E 149 St,6,"2939,2024",615,373,373,IRT,FALSE,Subway,40.812118,-73.904098,Northbound,Manhattan,1,1,1,,POINT (-73.904098 40.812118)
Bx,Pelham,3 Av-138 St,6,"2212,2261",619,377,377,IRT,FALSE,Subway,40.810476,-73.926138,Northbound,Manhattan,0,0,0,,POINT (-73.926138 40.810476)
Bx,Pelham,E 143 St-St Mary's St,6,"2937,2124",616,374,374,IRT,FALSE,Subway,40.808719,-73.907657,Northbound,Manhattan,0,0,0,,POINT (-73.907657 40.808719)
Bx,Pelham,Brook Av,6,"2495,2261",618,376,376,IRT,FALSE,Subway,40.807566,-73.91924,Northbound,Manhattan,0,0,0,,POINT (-73.91924 40.807566)
Bx,Pelham,Cypress Av,6,"2768,2265",617,375,375,IRT,FALSE,Subway,40.805368,-73.914042,Northbound,Manhattan,0,0,0,,POINT (-73.914042 40.805368)
M,63rd St,Lexington Av/63 St,F Q,"1774,3141",B08,223,223,IND,FALSE,Subway,40.764629,-73.966113,Uptown & Queens,Downtown,1,1,1,,POINT (-73.966113 40.764629)
M,63rd St,Roosevelt Island,F,"2346,3156",B06,222,222,IND,FALSE,Subway,40.759145,-73.95326,Queens,Downtown,1,1,1,,POINT (-73.95326 40.759145)
M,6th Av - Culver,57 St,F,"1485,3347",B10,224,224,IND,TRUE,Subway,40.763972,-73.97745,Uptown,Downtown,0,0,0,,POINT (-73.97745 40.763972)
M,6th Av - Culver,47-50 Sts-Rockefeller Ctr,B D F M,"1468,3548",D15,225,225,IND,TRUE,Subway,40.758663,-73.981329,Uptown,Downtown,1,1,1,,POINT (-73.981329 40.758663)
M,6th Av - Culver,42 St-Bryant Pk,B D F M,"1471,3734",D16,226,609,IND,TRUE,Subway,40.754222,-73.984569,Uptown,Downtown,0,0,0,,POINT (-73.984569 40.754222)
M,6th Av - Culver,34 St-Herald Sq,B D F M,"1471,3950",D17,227,607,IND,TRUE,Subway,40.749719,-73.987823,Uptown,Downtown,1,1,1,,POINT (-73.987823 40.749719)
M,6th Av - Culver,23 St,F M,"1471,4288",D18,228,228,IND,TRUE,Subway,40.742878,-73.992821,Uptown,Downtown,0,0,0,,POINT (-73.992821 40.742878)
M,6th Av - Culver,14 St,F M,"1472,4405",D19,229,601,IND,TRUE,Subway,40.738228,-73.996209,Uptown,Downtown,1,1,1,,POINT (-73.996209 40.738228)
M,6th Av - Culver,W 4 St-Wash Sq,B D F M,"1474,4642",D20,167,167,IND,TRUE,Subway,40.732338,-74.000495,Uptown,Downtown,1,1,1,,POINT (-74.000495 40.732338)
M,6th Av - Culver,Broadway-Lafayette St,B D F M,"1989,4724",D21,230,619,IND,TRUE,Subway,40.725297,-73.996204,Uptown,Downtown,1,1,1,,POINT (-73.996204 40.725297)
M,6th Av - Culver,2 Av,F,"2428,4709",F14,232,232,IND,TRUE,Subway,40.723402,-73.989938,Uptown,Downtown,0,0,0,,POINT (-73.989938 40.723402)
M,6th Av - Culver,Delancey St-Essex St,F,"2559,4816",F15,233,625,IND,TRUE,Subway,40.718611,-73.988114,Uptown,Brooklyn,0,0,0,,POINT (-73.988114 40.718611)
M,6th Av - Culver,Grand St,B D,"2423,4984",D22,231,231,IND,TRUE,Subway,40.718267,-73.993753,Uptown,Brooklyn,0,0,0,,POINT (-73.993753 40.718267)
M,6th Av - Culver,East Broadway,F,"2592,5022",F16,234,234,IND,TRUE,Subway,40.713715,-73.990173,Uptown,Brooklyn,0,0,0,,POINT (-73.990173 40.713715)
M,8th Av - Fulton St,Inwood-207 St,A,"407,1374",A02,143,143,IND,FALSE,Subway,40.868072,-73.919899,Last Stop,Downtown,1,1,1,,POINT (-73.919899 40.868072)
M,8th Av - Fulton St,Dyckman St,A,"411,1498",A03,144,144,IND,FALSE,Subway,40.865491,-73.927271,Uptown,Downtown,0,0,0,,POINT (-73.927271 40.865491)
M,8th Av - Fulton St,190 St,A,"410,1611",A05,145,145,IND,FALSE,Subway,40.859022,-73.93418,Uptown,Downtown,0,0,0,,POINT (-73.93418 40.859022)
M,8th Av - Fulton St,181 St,A,"409,1732",A06,146,146,IND,FALSE,Subway,40.851695,-73.937969,Uptown,Downtown,1,1,1,,POINT (-73.937969 40.851695)
M,8th Av - Fulton St,175 St,A,"484,1835",A07,147,147,IND,FALSE,Subway,40.847391,-73.939704,Uptown,Downtown,1,1,1,,POINT (-73.939704 40.847391)
M,8th Av - Fulton St,168 St,A C,"568,1889",A09,148,605,IND,FALSE,Subway,40.840719,-73.939561,Uptown,Downtown,1,1,1,,POINT (-73.939561 40.840719)
M,8th Av - Fulton St,163 St-Amsterdam Av,C,"646,1962",A10,149,149,IND,FALSE,Subway,40.836013,-73.939892,Uptown,Downtown,0,0,0,,POINT (-73.939892 40.836013)
M,8th Av - Fulton St,155 St,C,"748,2076",A11,150,150,IND,FALSE,Subway,40.830518,-73.941514,Uptown,Downtown,0,0,0,,POINT (-73.941514 40.830518)
M,8th Av - Fulton St,145 St,A C,"784,2237",A12,151,151,IND,FALSE,Subway,40.824783,-73.944216,Uptown,Downtown,0,0,0,,POINT (-73.944216 40.824783)
M,8th Av - Fulton St,135 St,C B,"823,2357",A14,152,152,IND,FALSE,Subway,40.817894,-73.947649,Uptown,Downtown,0,0,0,,POINT (-73.947649 40.817894)
M,8th Av - Fulton St,125 St,A C B D,"821,2467",A15,153,153,IND,FALSE,Subway,40.811109,-73.952343,Uptown,Downtown,1,1,1,,POINT (-73.952343 40.811109)
M,8th Av - Fulton St,116 St,C B,"825,2550",A16,154,154,IND,FALSE,Subway,40.805085,-73.954882,Uptown,Downtown,0,0,0,,POINT (-73.954882 40.805085)
M,8th Av - Fulton St,Cathedral Pkwy (110 St),C B,"824,2618",A17,155,155,IND,FALSE,Subway,40.800603,-73.958161,Uptown,Downtown,0,0,0,,POINT (-73.958161 40.800603)
M,8th Av - Fulton St,103 St,C B,"820,2696",A18,156,156,IND,FALSE,Subway,40.796092,-73.961454,Uptown,Downtown,0,0,0,,POINT (-73.961454 40.796092)
M,8th Av - Fulton St,96 St,C B,"824,2856",A19,157,157,IND,FALSE,Subway,40.791642,-73.964696,Uptown,Downtown,0,0,0,,POINT (-73.964696 40.791642)
M,8th Av - Fulton St,86 St,C B,"821,2947",A20,158,158,IND,FALSE,Subway,40.785868,-73.968916,Uptown,Downtown,0,0,0,,POINT (-73.968916 40.785868)
M,8th Av - Fulton St,81 St-Museum of Natural History,C B,"820,3052",A21,159,159,IND,FALSE,Subway,40.781433,-73.972143,Uptown,Downtown,0,0,0,,POINT (-73.972143 40.781433)
M,8th Av - Fulton St,72 St,C B,"820,3141",A22,160,160,IND,FALSE,Subway,40.775594,-73.97641,Uptown,Downtown,0,0,0,,POINT (-73.97641 40.775594)
M,8th Av - Fulton St,59 St-Columbus Circle,A C B D,"821,3317",A24,161,614,IND,TRUE,Subway,40.768296,-73.981736,Uptown,Downtown,1,1,1,,POINT (-73.981736 40.768296)
M,8th Av - Fulton St,50 St,C E,"804,3552",A25,162,162,IND,TRUE,Subway,40.762456,-73.985984,Uptown,Downtown,2,0,1,Downtown only,POINT (-73.985984 40.762456)
M,8th Av - Fulton St,42 St-Port Authority Bus Terminal,A C E,"806,3732",A27,163,611,IND,TRUE,Subway,40.757308,-73.989735,Uptown,Downtown,1,1,1,,POINT (-73.989735 40.757308)
M,8th Av - Fulton St,34 St-Penn Station,A C E,"806,4021",A28,164,164,IND,TRUE,Subway,40.752287,-73.993391,Uptown,Downtown,1,1,1,,POINT (-73.993391 40.752287)
M,8th Av - Fulton St,23 St,C E,"803,4273",A30,165,165,IND,TRUE,Subway,40.745906,-73.998041,Uptown,Downtown,0,0,0,,POINT (-73.998041 40.745906)
M,8th Av - Fulton St,14 St,A C E,"803,4407",A31,166,618,IND,TRUE,Subway,40.740893,-74.00169,Uptown,Downtown,1,1,1,,POINT (-74.00169 40.740893)
M,8th Av - Fulton St,W 4 St-Wash Sq,A C E,"1338,4643",A32,167,167,IND,TRUE,Subway,40.732338,-74.000495,Uptown,Downtown,1,1,1,,POINT (-74.000495 40.732338)
M,8th Av - Fulton St,Spring St,C E,"1336,4839",A33,168,168,IND,TRUE,Subway,40.726227,-74.003739,Uptown,Downtown,0,0,0,,POINT (-74.003739 40.726227)
M,8th Av - Fulton St,Canal St,A C E,"1339,5000",A34,169,169,IND,TRUE,Subway,40.720824,-74.005229,Uptown,Downtown,0,0,0,,POINT (-74.005229 40.720824)
M,8th Av - Fulton St,Chambers St,A C,"1341,5245",A36,170,624,IND,TRUE,Subway,40.714111,-74.008585,Uptown,Brooklyn,0,0,0,,POINT (-74.008585 40.714111)
M,8th Av - Fulton St,World Trade Center,E,"1414,5537",E01,171,624,IND,TRUE,Subway,40.712582,-74.009781,Uptown,Last Stop,1,1,1,,POINT (-74.009781 40.712582)
M,8th Av - Fulton St,Fulton St,A C,"1985,5598",A38,172,628,IND,TRUE,Subway,40.710197,-74.007691,Uptown,Brooklyn,1,1,1,,POINT (-74.007691 40.710197)
M,Astoria,5 Av/59 St,N R W,"1663,3275",R13,8,8,BMT,TRUE,Subway,40.764811,-73.973347,Queens,Downtown,0,0,0,,POINT (-73.973347 40.764811)
M,Astoria,Lexington Av/59 St,N R W,"1988,3274",R11,7,613,BMT,TRUE,Subway,40.76266,-73.967258,Queens,Downtown,0,0,0,,POINT (-73.967258 40.76266)
M,Broadway,Canal St,R W,"1700,5002",R23,18,623,BMT,TRUE,Subway,40.719527,-74.001775,Uptown,Downtown,0,0,0,,POINT (-74.001775 40.719527)
M,Broadway,City Hall,R W,"1698,5237",R24,20,20,BMT,TRUE,Subway,40.713282,-74.006978,Uptown,Downtown,0,0,0,,POINT (-74.006978 40.713282)
M,Broadway,Cortlandt St,R W,"1703,5670",R25,21,624,BMT,TRUE,Subway,40.710668,-74.011029,Uptown,Downtown,1,1,1,,POINT (-74.011029 40.710668)
M,Broadway,Rector St,R W,"1700,5793",R26,22,22,BMT,TRUE,Subway,40.70722,-74.013342,Uptown,Downtown,0,0,0,,POINT (-74.013342 40.70722)
M,Broadway,Whitehall St-South Ferry,R W,"1754,5873",R27,23,635,BMT,TRUE,Subway,40.703087,-74.012994,Uptown,Downtown,0,0,0,,POINT (-74.012994 40.703087)
M,Broadway - 7Av,Marble Hill-225 St,1,"614,1063",106,296,296,IRT,FALSE,Elevated,40.874561,-73.909831,The Bronx,Downtown,0,0,0,,POINT (-73.909831 40.874561)
M,Broadway - 7Av,215 St,1,"612,1257",107,297,297,IRT,FALSE,Elevated,40.869444,-73.915279,The Bronx,Downtown,0,0,0,,POINT (-73.915279 40.869444)
M,Broadway - 7Av,207 St,1,"615,1372",108,298,298,IRT,FALSE,Elevated,40.864621,-73.918822,The Bronx,Downtown,0,0,0,,POINT (-73.918822 40.864621)
M,Broadway - 7Av,Dyckman St,1,"611,1491",109,299,299,IRT,FALSE,Elevated,40.860531,-73.925536,The Bronx,Downtown,1,1,1,,POINT (-73.925536 40.860531)
M,Broadway - 7Av,191 St,1,"612,1608",110,300,300,IRT,FALSE,Subway,40.855225,-73.929412,The Bronx,Downtown,0,0,0,,POINT (-73.929412 40.855225)
M,Broadway - 7Av,181 St,1,"611,1726",111,301,301,IRT,FALSE,Subway,40.849505,-73.933596,The Bronx,Downtown,0,0,0,,POINT (-73.933596 40.849505)
M,Broadway - 7Av,168 St-Washington Hts,1,"615,1852",112,302,605,IRT,FALSE,Subway,40.840556,-73.940133,Uptown,Downtown,0,0,0,,POINT (-73.940133 40.840556)
M,Broadway - 7Av,157 St,1,"611,2103",113,303,303,IRT,FALSE,Subway,40.834041,-73.94489,Uptown,Downtown,0,0,0,,POINT (-73.94489 40.834041)
M,Broadway - 7Av,145 St,1,"611,2245",114,304,304,IRT,FALSE,Subway,40.826551,-73.95036,Uptown,Downtown,0,0,0,,POINT (-73.95036 40.826551)
M,Broadway - 7Av,137 St-City College,1,"614,2341",115,305,305,IRT,FALSE,Subway,40.822008,-73.953676,Uptown,Downtown,0,0,0,,POINT (-73.953676 40.822008)
M,Broadway - 7Av,125 St,1,"613,2473",116,306,306,IRT,FALSE,Elevated,40.815581,-73.958372,Uptown,Downtown,0,0,0,,POINT (-73.958372 40.815581)
M,Broadway - 7Av,116 St-Columbia University,1,"614,2543",117,307,307,IRT,FALSE,Subway,40.807722,-73.96411,Uptown,Downtown,0,0,0,,POINT (-73.96411 40.807722)
M,Broadway - 7Av,Cathedral Pkwy (110 St),1,"613,2620",118,308,308,IRT,FALSE,Subway,40.803967,-73.966847,Uptown,Downtown,0,0,0,,POINT (-73.966847 40.803967)
M,Broadway - 7Av,103 St,1,"613,2700",119,309,309,IRT,FALSE,Subway,40.799446,-73.968379,Uptown,Downtown,0,0,0,,POINT (-73.968379 40.799446)
M,Broadway - 7Av,96 St,1 2 2003,"653,2851",120,310,310,IRT,FALSE,Subway,40.793919,-73.972323,Uptown,Downtown,1,1,1,,POINT (-73.972323 40.793919)
M,Broadway - 7Av,86 St,1,"653,2946",121,311,311,IRT,FALSE,Subway,40.788644,-73.976218,Uptown,Downtown,0,0,0,,POINT (-73.976218 40.788644)
M,Broadway - 7Av,79 St,1,"651,3043",122,312,312,IRT,FALSE,Subway,40.783934,-73.979917,Uptown,Downtown,0,0,0,,POINT (-73.979917 40.783934)
M,Broadway - 7Av,72 St,1 2 2003,"647,3138",123,313,313,IRT,FALSE,Subway,40.778453,-73.98197,Uptown,Downtown,1,1,1,,POINT (-73.98197 40.778453)
M,Broadway - 7Av,66 St-Lincoln Center,1,"683,3222",124,314,314,IRT,FALSE,Subway,40.77344,-73.982209,Uptown,Downtown,1,1,1,,POINT (-73.982209 40.77344)
M,Broadway - 7Av,59 St-Columbus Circle,1,"763,3289",125,315,614,IRT,TRUE,Subway,40.768247,-73.981929,Uptown,Downtown,1,1,1,,POINT (-73.981929 40.768247)
M,Broadway - 7Av,50 St,1,"978,3507",126,316,316,IRT,TRUE,Subway,40.761728,-73.983849,Uptown,Downtown,0,0,0,,POINT (-73.983849 40.761728)
M,Broadway - 7Av,Times Sq-42 St,1 2 2003,"1070,3729",127,317,611,IRT,TRUE,Subway,40.75529,-73.987495,Uptown,Downtown,1,1,1,,POINT (-73.987495 40.75529)
M,Broadway - 7Av,34 St-Penn Station,1 2 2003,"1069,4014",128,318,318,IRT,TRUE,Subway,40.750373,-73.991057,Uptown,Downtown,1,1,1,,POINT (-73.991057 40.750373)
M,Broadway - 7Av,28 St,1,"1070,4195",129,319,319,IRT,TRUE,Subway,40.747215,-73.993365,Uptown,Downtown,0,0,0,,POINT (-73.993365 40.747215)
M,Broadway - 7Av,23 St,1,"1069,4263",130,320,320,IRT,TRUE,Subway,40.744081,-73.995657,Uptown,Downtown,0,0,0,,POINT (-73.995657 40.744081)
M,Broadway - 7Av,18 St,1,"1070,4342",131,321,321,IRT,TRUE,Subway,40.74104,-73.997871,Uptown,Downtown,0,0,0,,POINT (-73.997871 40.74104)
M,Broadway - 7Av,14 St,1 2 2003,"1068,4404",132,322,601,IRT,TRUE,Subway,40.737826,-74.000201,Uptown,Downtown,1,1,1,,POINT (-74.000201 40.737826)
M,Broadway - 7Av,Christopher St-Stonewall,1,"1070,4777",133,323,323,IRT,TRUE,Subway,40.733422,-74.002906,Uptown,Downtown,0,0,0,,POINT (-74.002906 40.733422)
M,Broadway - 7Av,Houston St,1,"1069,4886",134,324,324,IRT,TRUE,Subway,40.728251,-74.005367,Uptown,Downtown,0,0,0,,POINT (-74.005367 40.728251)
M,Broadway - 7Av,Canal St,1,"1070,5002",135,325,325,IRT,TRUE,Subway,40.722854,-74.006277,Uptown,Downtown,0,0,0,,POINT (-74.006277 40.722854)
M,Broadway - 7Av,Franklin St,1,"1071,5118",136,326,326,IRT,TRUE,Subway,40.719318,-74.006886,Uptown,Downtown,0,0,0,,POINT (-74.006886 40.719318)
M,Broadway - 7Av,Chambers St,1 2 2003,"1070,5243",137,327,327,IRT,TRUE,Subway,40.715478,-74.009266,Uptown,Downtown,1,1,1,,POINT (-74.009266 40.715478)
M,Broadway - 7Av,WTC Cortlandt,1,"1200,5668",138,328,328,IRT,TRUE,Subway,40.711835,-74.012188,Uptown,Downtown,1,1,1,,POINT (-74.012188 40.711835)
M,Broadway - 7Av,Rector St,1,"1317,5793",139,329,329,IRT,TRUE,Subway,40.707513,-74.013783,Uptown,Downtown,0,0,0,,POINT (-74.013783 40.707513)
M,Broadway - 7Av,South Ferry,1,"1757,6057",142,330,635,IRT,TRUE,Subway,40.702068,-74.013664,Uptown,Last Stop,1,1,1,,POINT (-74.013664 40.702068)
M,Broadway - Brighton,57 St-7 Av,N Q R W,"1203,3351",R14,9,9,BMT,TRUE,Subway,40.764664,-73.980658,Uptown,Downtown,1,1,1,,POINT (-73.980658 40.764664)
M,Broadway - Brighton,49 St,N R W,"1202,3548",R15,10,10,BMT,TRUE,Subway,40.759901,-73.984139,Uptown,Downtown,2,1,0,Uptown only,POINT (-73.984139 40.759901)
M,Broadway - Brighton,Times Sq-42 St,N Q R W,"1204,3730",R16,11,611,BMT,TRUE,Subway,40.754672,-73.986754,Uptown,Downtown,1,1,1,,POINT (-73.986754 40.754672)
M,Broadway - Brighton,34 St-Herald Sq,N Q R W,"1333,3905",R17,12,607,BMT,TRUE,Subway,40.749567,-73.98795,Uptown,Downtown,1,1,1,,POINT (-73.98795 40.749567)
M,Broadway - Brighton,28 St,R W,"1606,4174",R18,13,13,BMT,TRUE,Subway,40.745494,-73.988691,Uptown,Downtown,0,0,0,,POINT (-73.988691 40.745494)
M,Broadway - Brighton,23 St,R W,"1677,4256",R19,14,14,BMT,TRUE,Subway,40.741303,-73.989344,Uptown,Downtown,0,0,0,,POINT (-73.989344 40.741303)
M,Broadway - Brighton,14 St-Union Sq,N Q R W,"1737,4404",R20,15,602,BMT,TRUE,Subway,40.735736,-73.990568,Uptown,Downtown,1,1,1,,POINT (-73.990568 40.735736)
M,Broadway - Brighton,8 St-NYU,R W,"1737,4580",R21,16,16,BMT,TRUE,Subway,40.730328,-73.992629,Uptown,Downtown,0,0,0,,POINT (-73.992629 40.730328)
M,Broadway - Brighton,Prince St,R W,"1734,4829",R22,17,17,BMT,TRUE,Subway,40.724329,-73.997702,Uptown,Downtown,0,0,0,,POINT (-73.997702 40.724329)
M,Canarsie,8 Av,L,"892,4406",L01,115,618,BMT,TRUE,Subway,40.739777,-74.002578,Last Stop,Brooklyn,1,1,1,,POINT (-74.002578 40.739777)
M,Canarsie,6 Av,L,"1372,4412",L02,116,601,BMT,TRUE,Subway,40.737335,-73.996786,West Side,Brooklyn,1,1,1,,POINT (-73.996786 40.737335)
M,Canarsie,14 St-Union Sq,L,"2023,4408",L03,117,602,BMT,TRUE,Subway,40.734789,-73.99073,West Side,Brooklyn,1,1,1,,POINT (-73.99073 40.734789)
M,Canarsie,3 Av,L,"2156,4411",L05,118,118,BMT,TRUE,Subway,40.732849,-73.986122,West Side,Brooklyn,0,0,0,,POINT (-73.986122 40.732849)
M,Canarsie,1 Av,L,"2290,4407",L06,119,119,BMT,TRUE,Subway,40.730953,-73.981628,West Side,Brooklyn,1,1,1,,POINT (-73.981628 40.730953)
M,Clark St,Park Place,2 3,"1414,5367",228,331,624,IRT,TRUE,Subway,40.713051,-74.008811,Uptown,Brooklyn,0,0,0,,POINT (-74.008811 40.713051)
M,Clark St,Fulton St,2 3,"2263,5542",229,332,628,IRT,TRUE,Subway,40.709416,-74.006571,Uptown,Brooklyn,1,1,1,,POINT (-74.006571 40.709416)
M,Clark St,Wall St,2 3,"2262,5672",230,333,333,IRT,TRUE,Subway,40.706821,-74.0091,Uptown,Brooklyn,0,0,0,,POINT (-74.0091 40.706821)
M,Concourse,155 St,B D,"998,1918",D12,220,220,IND,FALSE,Subway,40.830135,-73.938209,The Bronx,Downtown,0,0,0,,POINT (-73.938209 40.830135)
M,Concourse,145 St,B D,"860,2241",D13,151,151,IND,FALSE,Subway,40.824783,-73.944216,Uptown,Downtown,0,0,0,,POINT (-73.944216 40.824783)
M,Flushing,34 St-Hudson Yards,7,"476,3917",726,471,471,IRT,TRUE,Subway,40.755882,-74.00191,Last Stop,Queens,1,1,1,,POINT (-74.00191 40.755882)
M,Flushing,Times Sq-42 St,7,"994,3728",725,467,611,IRT,TRUE,Subway,40.755477,-73.987691,Queens,Hudson Yards,1,1,1,,POINT (-73.987691 40.755477)
M,Flushing,5 Av,7,"1704,3728",724,466,609,IRT,TRUE,Subway,40.753821,-73.981963,Queens,Hudson Yards,0,0,0,,POINT (-73.981963 40.753821)
M,Flushing,Grand Central-42 St,7,"1989,3730",723,465,610,IRT,TRUE,Subway,40.751431,-73.976041,Queens,Hudson Yards,1,1,1,,POINT (-73.976041 40.751431)
M,Jamaica,Bowery,J Z,"2181,4914",M19,103,103,BMT,TRUE,Subway,40.72028,-73.993915,Brooklyn,Downtown,0,0,0,,POINT (-73.993915 40.72028)
M,Jamaica,Delancey St-Essex St,M J Z,"2556,4912",M18,102,625,BMT,TRUE,Subway,40.718315,-73.987437,Brooklyn,Inbound,0,0,0,,POINT (-73.987437 40.718315)
M,Jamaica,Canal St,J Z,"2080,4995",M20,104,623,BMT,TRUE,Subway,40.718092,-73.999892,Brooklyn,Downtown,0,0,0,,POINT (-73.999892 40.718092)
M,Jamaica,Chambers St,J Z,"2078,5149",M21,105,622,BMT,TRUE,Subway,40.713243,-74.003401,Brooklyn,Downtown,1,1,1,,POINT (-74.003401 40.713243)
M,Jamaica,Fulton St,J Z,"2079,5544",M22,106,628,BMT,TRUE,Subway,40.710374,-74.007582,Brooklyn,Downtown,1,1,1,,POINT (-74.007582 40.710374)
M,Jamaica,Broad St,J Z,"2077,5751",M23,107,107,BMT,TRUE,Subway,40.706476,-74.011056,Brooklyn,Last Stop,0,0,0,,POINT (-74.011056 40.706476)
M,Lenox - White Plains Rd,Harlem-148 St,3,"1143,2084",301,436,436,IRT,FALSE,Subway,40.82388,-73.93647,Last Stop,Downtown,0,0,0,,POINT (-73.93647 40.82388)
M,Lenox - White Plains Rd,145 St,3,"1352,2238",302,437,437,IRT,FALSE,Subway,40.820421,-73.936245,Harlem,Downtown,0,0,0,,POINT (-73.936245 40.820421)
M,Lenox - White Plains Rd,135 St,2 3,"1358,2351",224,438,438,IRT,FALSE,Subway,40.814229,-73.94077,Uptown,Downtown,1,1,1,,POINT (-73.94077 40.814229)
M,Lenox - White Plains Rd,125 St,2 3,"1354,2465",225,439,439,IRT,FALSE,Subway,40.807754,-73.945495,Uptown,Downtown,0,0,0,,POINT (-73.945495 40.807754)
M,Lenox - White Plains Rd,116 St,2 3,"1354,2547",226,440,440,IRT,FALSE,Subway,40.802098,-73.949625,Uptown,Downtown,0,0,0,,POINT (-73.949625 40.802098)
M,Lenox - White Plains Rd,Central Park North (110 St),2 3,"1356,2622",227,441,441,IRT,FALSE,Subway,40.799075,-73.951822,Uptown,Downtown,0,0,0,,POINT (-73.951822 40.799075)
M,Lexington - Shuttle,Times Sq-42 St,S,"1301,3691",902,468,611,IRT,TRUE,Subway,40.755983,-73.986229,Last Stop,Grand Central,1,1,1,,POINT (-73.986229 40.755983)
M,Lexington - Shuttle,Grand Central-42 St,S,"1828,3689",901,469,610,IRT,TRUE,Subway,40.752769,-73.979189,Times Square,Last Stop,1,1,1,,POINT (-73.979189 40.752769)
M,Lexington Av,125 St,4 5 2006,"1907,2464",621,392,392,IRT,FALSE,Subway,40.804138,-73.937594,The Bronx,Downtown,1,1,1,,POINT (-73.937594 40.804138)
M,Lexington Av,116 St,6,"1908,2544",622,393,393,IRT,FALSE,Subway,40.798629,-73.941617,The Bronx,Downtown,0,0,0,,POINT (-73.941617 40.798629)
M,Lexington Av,110 St,6,"1909,2620",623,394,394,IRT,FALSE,Subway,40.79502,-73.94425,The Bronx,Downtown,0,0,0,,POINT (-73.94425 40.79502)
M,Lexington Av,103 St,6,"1909,2696",624,395,395,IRT,FALSE,Subway,40.7906,-73.947478,The Bronx,Downtown,0,0,0,,POINT (-73.947478 40.7906)
M,Lexington Av,96 St,6,"1910,2777",625,396,396,IRT,FALSE,Subway,40.785672,-73.95107,The Bronx,Downtown,0,0,0,,POINT (-73.95107 40.785672)
M,Lexington Av,86 St,4 5 2006,"1908,2855",626,397,397,IRT,FALSE,Subway,40.779492,-73.955589,Uptown,Downtown,2,1,0,Uptown local only,POINT (-73.955589 40.779492)
M,Lexington Av,77 St,6,"1908,2936",627,398,398,IRT,FALSE,Subway,40.77362,-73.959874,Uptown,Downtown,0,0,0,,POINT (-73.959874 40.77362)
M,Lexington Av,68 St-Hunter College,6,"1908,3039",628,399,399,IRT,FALSE,Subway,40.768141,-73.96387,Uptown,Downtown,1,1,1,,POINT (-73.96387 40.768141)
M,Lexington Av,59 St,4 5 2006,"1910,3351",629,400,613,IRT,TRUE,Subway,40.762526,-73.967967,Uptown,Downtown,0,0,0,,POINT (-73.967967 40.762526)
M,Lexington Av,51 St,6,"1909,3546",630,401,612,IRT,TRUE,Subway,40.757107,-73.97192,Uptown,Downtown,1,1,1,,POINT (-73.97192 40.757107)
M,Lexington Av,Grand Central-42 St,4 5 2006,"1907,3728",631,402,610,IRT,TRUE,Subway,40.751776,-73.976848,Uptown,Downtown,1,1,1,,POINT (-73.976848 40.751776)
M,Lexington Av,33 St,6,"1908,4014",632,403,403,IRT,TRUE,Subway,40.746081,-73.982076,Uptown,Downtown,0,0,0,,POINT (-73.982076 40.746081)
M,Lexington Av,28 St,6,"1907,4116",633,404,404,IRT,TRUE,Subway,40.74307,-73.984264,Uptown,Downtown,2,0,1,Downtown only,POINT (-73.984264 40.74307)
M,Lexington Av,23 St,6,"1907,4214",634,405,405,IRT,TRUE,Subway,40.739864,-73.986599,Uptown,Downtown,1,1,1,,POINT (-73.986599 40.739864)
M,Lexington Av,14 St-Union Sq,4 5 2006,"1909,4404",635,406,602,IRT,TRUE,Subway,40.734673,-73.989951,Uptown,Downtown,0,0,0,,POINT (-73.989951 40.734673)
M,Lexington Av,Astor Pl,6,"1907,4495",636,407,407,IRT,TRUE,Subway,40.730054,-73.99107,Uptown,Downtown,0,0,0,,POINT (-73.99107 40.730054)
M,Lexington Av,Bleecker St,6,"1907,4607",637,408,619,IRT,TRUE,Subway,40.725915,-73.994659,Uptown,Downtown,1,1,1,,POINT (-73.994659 40.725915)
M,Lexington Av,Spring St,6,"1909,4837",638,409,409,IRT,TRUE,Subway,40.722301,-73.997141,Uptown,Downtown,0,0,0,,POINT (-73.997141 40.722301)
M,Lexington Av,Canal St,6,"1905,4996",639,410,623,IRT,TRUE,Subway,40.718803,-74.000193,Uptown,Downtown,1,1,1,,POINT (-74.000193 40.718803)
M,Lexington Av,Brooklyn Bridge-City Hall,4 5 2006,"1907,5150",640,411,622,IRT,TRUE,Subway,40.713065,-74.004131,Uptown,Downtown,1,1,1,,POINT (-74.004131 40.713065)
M,Lexington Av,Fulton St,4 5,"1892,5544",418,412,628,IRT,TRUE,Subway,40.710368,-74.009509,Uptown,Downtown,1,1,1,,POINT (-74.009509 40.710368)
M,Lexington Av,Wall St,4 5,"1890,5676",419,413,413,IRT,TRUE,Subway,40.707557,-74.011862,Uptown,Downtown,0,0,0,,POINT (-74.011862 40.707557)
M,Lexington Av,Bowling Green,4 5,"1889,5820",420,414,414,IRT,TRUE,Subway,40.704817,-74.014065,Uptown,Downtown,1,1,1,,POINT (-74.014065 40.704817)
M,Manhattan Bridge,Canal St,N Q,"1774,4999",Q01,19,623,BMT,TRUE,Subway,40.718383,-74.00046,Uptown,Downtown,0,0,0,,POINT (-74.00046 40.718383)
M,Queens Blvd,7 Av,E B D,"1048,3461",D14,277,277,IND,TRUE,Subway,40.762862,-73.981637,Outbound,Downtown,0,0,0,,POINT (-73.981637 40.762862)
M,Queens Blvd,5 Av/53 St,E M,"1704,3485",F12,276,276,IND,TRUE,Subway,40.760167,-73.975224,Queens,Downtown,0,0,0,,POINT (-73.975224 40.760167)
M,Queens Blvd,Lexington Av/53 St,E M,"1986,3483",F11,275,612,IND,TRUE,Subway,40.757552,-73.969055,Queens,Downtown,1,1,1,,POINT (-73.969055 40.757552)
M,Second Av,96 St,Q,"2158,2780",Q05,475,475,IND,FALSE,Subway,40.784318,-73.947152,Last Stop,Downtown,1,1,1,,POINT (-73.947152 40.784318)
M,Second Av,86 St,Q,"2157,2858",Q04,476,476,IND,FALSE,Subway,40.777891,-73.951787,Uptown,Downtown,1,1,1,,POINT (-73.951787 40.777891)
M,Second Av,72 St,Q,"2158,3007",Q03,477,477,IND,FALSE,Subway,40.768799,-73.958424,Uptown,Downtown,1,1,1,,POINT (-73.958424 40.768799)
Q,63rd St,21 St-Queensbridge,F,"2478,3159",B04,221,221,IND,FALSE,Subway,40.754203,-73.942836,Outbound,Manhattan,1,1,1,,POINT (-73.942836 40.754203)
Q,Astoria,Astoria-Ditmars Blvd,N W,"2975,2543",R01,1,1,BMT,FALSE,Elevated,40.775036,-73.912034,Last Stop,Manhattan,0,0,0,,POINT (-73.912034 40.775036)
Q,Astoria,Astoria Blvd,N W,"2975,2659",R03,2,2,BMT,FALSE,Elevated,40.770258,-73.917843,Astoria,Manhattan,1,1,1,,POINT (-73.917843 40.770258)
Q,Astoria,30 Av,N W,"2977,2769",R04,3,3,BMT,FALSE,Elevated,40.766779,-73.921479,Astoria,Manhattan,0,0,0,,POINT (-73.921479 40.766779)
Q,Astoria,Broadway,N W,"2976,2889",R05,4,4,BMT,FALSE,Elevated,40.76182,-73.925508,Astoria,Manhattan,0,0,0,,POINT (-73.925508 40.76182)
Q,Astoria,36 Av,N W,"2976,3002",R06,5,5,BMT,FALSE,Elevated,40.756804,-73.929575,Astoria,Manhattan,0,0,0,,POINT (-73.929575 40.756804)
Q,Astoria,39 Av-Dutch Kills,N W,"2975,3116",R08,6,6,BMT,FALSE,Elevated,40.752882,-73.932755,Astoria,Manhattan,0,0,0,,POINT (-73.932755 40.752882)
Q,Astoria,Queensboro Plaza,N W,"2916,3285",R09,461,461,BMT,FALSE,Elevated,40.750582,-73.940202,Astoria,Manhattan,1,1,1,,POINT (-73.940202 40.750582)
Q,Canarsie,Halsey St,L,"4186,4408",L19,129,129,BMT,FALSE,Subway,40.695602,-73.904084,Manhattan,Outbound,0,0,0,,POINT (-73.904084 40.695602)
Q,Crosstown,Court Sq,G,"2726,3581",G22,281,606,IND,FALSE,Subway,40.746554,-73.943832,Last Stop,Brooklyn,1,1,1,,POINT (-73.943832 40.746554)
Q,Crosstown,21 St,G,"2611,3627",G24,282,282,IND,FALSE,Subway,40.744065,-73.949724,Court Square,Brooklyn,0,0,0,,POINT (-73.949724 40.744065)
Q,Flushing,Flushing-Main St,7,"4437,2356",701,447,447,IRT,FALSE,Subway,40.7596,-73.83003,Last Stop,Manhattan,1,1,1,,POINT (-73.83003 40.7596)
Q,Flushing,Mets-Willets Point,7,"4373,2423",702,448,448,IRT,FALSE,Elevated,40.754622,-73.845625,Outbound,Manhattan,0,0,0,,POINT (-73.845625 40.754622)
Q,Flushing,111 St,7,"4305,2493",705,449,449,IRT,FALSE,Elevated,40.75173,-73.855334,Outbound,Manhattan,0,0,0,,POINT (-73.855334 40.75173)
Q,Flushing,Queensboro Plaza,7,"2922,3367",718,461,461,IRT,FALSE,Elevated,40.750582,-73.940202,Outbound,Manhattan,1,1,1,,POINT (-73.940202 40.750582)
Q,Flushing,103 St-Corona Plaza,7,"4244,2553",706,450,450,IRT,FALSE,Elevated,40.749865,-73.8627,Outbound,Manhattan,0,0,0,,POINT (-73.8627 40.749865)
Q,Flushing,Junction Blvd,7,"4174,2620",707,451,451,IRT,FALSE,Elevated,40.749145,-73.869527,Outbound,Manhattan,1,1,1,,POINT (-73.869527 40.749145)
Q,Flushing,90 St-Elmhurst Av,7,"4111,2684",708,452,452,IRT,FALSE,Elevated,40.748408,-73.876613,Outbound,Manhattan,0,0,0,,POINT (-73.876613 40.748408)
Q,Flushing,82 St-Jackson Hts,7,"4050,2745",709,453,453,IRT,FALSE,Elevated,40.747659,-73.883697,Outbound,Manhattan,0,0,0,,POINT (-73.883697 40.747659)
Q,Flushing,Court Sq,7,"2767,3578",719,462,606,IRT,FALSE,Elevated,40.747023,-73.945264,Outbound,Manhattan,1,1,1,,POINT (-73.945264 40.747023)
Q,Flushing,74 St-Broadway,7,"3939,2860",710,454,616,IRT,FALSE,Elevated,40.746848,-73.891394,Outbound,Manhattan,1,1,1,,POINT (-73.891394 40.746848)
Q,Flushing,69 St,7,"3690,3108",711,455,455,IRT,FALSE,Elevated,40.746325,-73.896403,Outbound,Manhattan,0,0,0,,POINT (-73.896403 40.746325)
Q,Flushing,61 St-Woodside,7,"3603,3194",712,456,456,IRT,FALSE,Elevated,40.74563,-73.902984,Outbound,Manhattan,1,1,1,,POINT (-73.902984 40.74563)
Q,Flushing,33 St-Rawson St,7,"3183,3375",716,460,460,IRT,FALSE,Elevated,40.744587,-73.930997,Outbound,Manhattan,0,0,0,,POINT (-73.930997 40.744587)
Q,Flushing,52 St,7,"3527,3274",713,457,457,IRT,FALSE,Elevated,40.744149,-73.912549,Outbound,Manhattan,0,0,0,,POINT (-73.912549 40.744149)
Q,Flushing,40 St-Lowery St,7,"3345,3364",715,459,459,IRT,FALSE,Elevated,40.743781,-73.924016,Outbound,Manhattan,0,0,0,,POINT (-73.924016 40.743781)
Q,Flushing,46 St-Bliss St,7,"3455,3342",714,458,458,IRT,FALSE,Elevated,40.743132,-73.918435,Outbound,Manhattan,0,0,0,,POINT (-73.918435 40.743132)
Q,Flushing,Vernon Blvd-Jackson Av,7,"2499,3726",721,464,464,IRT,FALSE,Subway,40.742626,-73.953581,Outbound,Manhattan,0,0,0,,POINT (-73.953581 40.742626)
Q,Flushing,Hunters Point Av,7,"2664,3730",720,463,463,IRT,FALSE,Subway,40.742216,-73.948916,Outbound,Manhattan,0,0,0,,POINT (-73.948916 40.742216)
Q,Jamaica,121 St,J Z,"5564,3564",J12,80,80,BMT,FALSE,Elevated,40.700492,-73.828294,Jamaica,Manhattan,0,0,0,,POINT (-73.828294 40.700492)
Q,Jamaica,111 St,J,"5470,3659",J13,81,81,BMT,FALSE,Elevated,40.697418,-73.836345,Jamaica,Manhattan,0,0,0,,POINT (-73.836345 40.697418)
Q,Jamaica,104 St,J Z,"5367,3759",J14,82,82,BMT,FALSE,Elevated,40.695178,-73.84433,Jamaica,Manhattan,0,0,0,,POINT (-73.84433 40.695178)
Q,Jamaica,Woodhaven Blvd,J Z,"5266,3859",J15,83,83,BMT,FALSE,Elevated,40.693879,-73.851576,Jamaica,Manhattan,1,1,1,,POINT (-73.851576 40.693879)
Q,Jamaica,85 St-Forest Pkwy,J,"5166,3962",J16,84,84,BMT,FALSE,Elevated,40.692435,-73.86001,Jamaica,Manhattan,0,0,0,,POINT (-73.86001 40.692435)
Q,Jamaica,75 St-Elderts Ln,J Z,"5148,4049",J17,85,85,BMT,FALSE,Elevated,40.691324,-73.867139,Jamaica,Manhattan,0,0,0,,POINT (-73.867139 40.691324)
Q,Liberty Av,Ozone Park-Lefferts Blvd,A,"5732,4229",A65,195,195,IND,FALSE,Elevated,40.685951,-73.825798,Manhattan,Last Stop,1,1,1,,POINT (-73.825798 40.685951)
Q,Liberty Av,111 St,A,"5647,4318",A64,194,194,IND,FALSE,Elevated,40.684331,-73.832163,Manhattan,Ozone Park,0,0,0,,POINT (-73.832163 40.684331)
Q,Liberty Av,104 St,A,"5558,4398",A63,193,193,IND,FALSE,Elevated,40.681711,-73.837683,Manhattan,Ozone Park,0,0,0,,POINT (-73.837683 40.681711)
Q,Liberty Av,Rockaway Blvd,A,"5459,4502",A61,192,192,IND,FALSE,Elevated,40.680429,-73.843853,Manhattan,Outbound,0,0,0,,POINT (-73.843853 40.680429)
Q,Liberty Av,88 St,A,"5391,4576",A60,191,191,IND,FALSE,Elevated,40.679843,-73.85147,Manhattan,Outbound,0,0,0,,POINT (-73.85147 40.679843)
Q,Liberty Av,80 St,A,"5320,4640",A59,190,190,IND,FALSE,Elevated,40.679371,-73.858992,Manhattan,Outbound,0,0,0,,POINT (-73.858992 40.679371)
Q,Myrtle Av,Middle Village-Metropolitan Av,M,"4005,3784",M01,108,108,BMT,FALSE,Elevated,40.711396,-73.889601,Inbound,Last Stop,1,1,1,,POINT (-73.889601 40.711396)
Q,Myrtle Av,Fresh Pond Rd,M,"4009,3942",M04,109,109,BMT,FALSE,Elevated,40.706186,-73.895877,Inbound,Middle Village,0,0,0,,POINT (-73.895877 40.706186)
Q,Myrtle Av,Forest Av,M,"4009,4095",M05,110,110,BMT,FALSE,Elevated,40.704423,-73.903077,Inbound,Middle Village,0,0,0,,POINT (-73.903077 40.704423)
Q,Myrtle Av,Seneca Av,M,"4008,4249",M06,111,111,BMT,FALSE,Elevated,40.702762,-73.90774,Inbound,Middle Village,0,0,0,,POINT (-73.90774 40.702762)
Q,Queens - Archer,Jamaica-Van Wyck,E,"5405,3204",G07,280,280,IND,FALSE,Subway,40.702566,-73.816859,Jamaica,Manhattan,1,1,1,,POINT (-73.816859 40.702566)
Q,Queens - Archer,Jamaica Center-Parsons/Archer,E J Z,"5845,3196",G05,278,278,IND,FALSE,Subway,40.702147,-73.801109,Last Stop,Manhattan,1,1,1,,POINT (-73.801109 40.702147)
Q,Queens - Archer,Sutphin Blvd-Archer Av-JFK Airport,E J Z,"5719,3324",G06,279,279,IND,FALSE,Subway,40.700486,-73.807969,Jamaica,Manhattan,1,1,1,,POINT (-73.807969 40.700486)
Q,Queens Blvd,Steinway St,M R,"3129,3003",G19,271,271,IND,FALSE,Subway,40.756879,-73.92074,Outbound,Manhattan,0,0,0,,POINT (-73.92074 40.756879)
Q,Queens Blvd,46 St,M R,"3266,2951",G18,270,270,IND,FALSE,Subway,40.756312,-73.913333,Outbound,Manhattan,0,0,0,,POINT (-73.913333 40.756312)
Q,Queens Blvd,Northern Blvd,M R,"3451,2945",G16,269,269,IND,FALSE,Subway,40.752885,-73.906006,Outbound,Manhattan,2,1,0,Outbound only,POINT (-73.906006 40.752885)
Q,Queens Blvd,36 St,M R,"3124,3092",G20,272,272,IND,FALSE,Subway,40.752039,-73.928781,Outbound,Manhattan,0,0,0,,POINT (-73.928781 40.752039)
Q,Queens Blvd,65 St,M R,"3639,2948",G15,268,268,IND,FALSE,Subway,40.749669,-73.898453,Outbound,Manhattan,0,0,0,,POINT (-73.898453 40.749669)
Q,Queens Blvd,Queens Plaza,E M R,"3126,3255",G21,273,273,IND,FALSE,Subway,40.748973,-73.937243,Outbound,Manhattan,1,1,1,,POINT (-73.937243 40.748973)
Q,Queens Blvd,Court Sq-23 St,E M,"2727,3483",F09,274,606,IND,FALSE,Subway,40.747846,-73.946,Outbound,Manhattan,2,1,0,Manhattan-bound only,POINT (-73.946 40.747846)
Q,Queens Blvd,Jackson Hts-Roosevelt Av,E F M R,"3950,2990",G14,267,616,IND,FALSE,Subway,40.746644,-73.891338,Outbound,Manhattan,1,1,1,,POINT (-73.891338 40.746644)
Q,Queens Blvd,Elmhurst Av,M R,"4107,2950",G13,266,266,IND,FALSE,Subway,40.742454,-73.882017,Outbound,Manhattan,0,0,0,,POINT (-73.882017 40.742454)
Q,Queens Blvd,Grand Av-Newtown,M R,"4254,2951",G12,265,265,IND,FALSE,Subway,40.737015,-73.877223,Outbound,Manhattan,0,0,0,,POINT (-73.877223 40.737015)
Q,Queens Blvd,Woodhaven Blvd,M R,"4405,2951",G11,264,264,IND,FALSE,Subway,40.733106,-73.869229,Outbound,Manhattan,0,0,0,,POINT (-73.869229 40.733106)
Q,Queens Blvd,63 Dr-Rego Park,M R,"4549,2953",G10,263,263,IND,FALSE,Subway,40.729846,-73.861604,Outbound,Manhattan,0,0,0,,POINT (-73.861604 40.729846)
Q,Queens Blvd,67 Av,M R,"4699,2950",G09,262,262,IND,FALSE,Subway,40.726523,-73.852719,Outbound,Manhattan,0,0,0,,POINT (-73.852719 40.726523)
Q,Queens Blvd,Forest Hills-71 Av,E F M R,"4847,2988",G08,261,261,IND,FALSE,Subway,40.721691,-73.844521,Outbound,Manhattan,1,1,1,,POINT (-73.844521 40.721691)
Q,Queens Blvd,75 Av,E F,"4972,3032",F07,260,260,IND,FALSE,Subway,40.718331,-73.837324,Jamaica,Manhattan,0,0,0,,POINT (-73.837324 40.718331)
Q,Queens Blvd,Kew Gardens-Union Tpke,E F,"5098,3028",F06,259,259,IND,FALSE,Subway,40.714441,-73.831008,Jamaica,Manhattan,1,1,1,,POINT (-73.831008 40.714441)
Q,Queens Blvd,Jamaica-179 St,F,"5769,2678",F01,254,254,IND,FALSE,Subway,40.712646,-73.783817,Last Stop,Manhattan,1,1,1,,POINT (-73.783817 40.712646)
Q,Queens Blvd,169 St,F,"5680,2760",F02,255,255,IND,FALSE,Subway,40.71047,-73.793604,Jamaica,Manhattan,0,0,0,,POINT (-73.793604 40.71047)
Q,Queens Blvd,Briarwood,E F,"5222,3025",F05,258,258,IND,FALSE,Subway,40.709179,-73.820574,Jamaica,Manhattan,0,0,0,,POINT (-73.820574 40.709179)
Q,Queens Blvd,Parsons Blvd,F,"5594,2846",F03,256,256,IND,FALSE,Subway,40.707564,-73.803326,Jamaica,Manhattan,0,0,0,,POINT (-73.803326 40.707564)
Q,Queens Blvd,Sutphin Blvd,F,"5511,2931",F04,257,257,IND,FALSE,Subway,40.70546,-73.810708,Jamaica,Manhattan,0,0,0,,POINT (-73.810708 40.70546)
Q,Rockaway,Aqueduct Racetrack,A,"5640,4557",H01,196,196,IND,FALSE,At Grade,40.672097,-73.835919,Manhattan,Rockaways,1,1,1,,POINT (-73.835919 40.672097)
Q,Rockaway,Aqueduct-N Conduit Av,A,"5728,4651",H02,197,197,IND,FALSE,At Grade,40.668234,-73.834058,Manhattan,Rockaways,0,0,0,,POINT (-73.834058 40.668234)
Q,Rockaway,Howard Beach-JFK Airport,A,"5841,4764",H03,198,198,IND,FALSE,At Grade,40.660476,-73.830301,Manhattan,Rockaways,1,1,1,,POINT (-73.830301 40.660476)
Q,Rockaway,Broad Channel,A S,"6200,5147",H04,199,199,IND,FALSE,At Grade,40.608382,-73.815925,Inbound,Rockaways,0,0,0,,POINT (-73.815925 40.608382)
Q,Rockaway,Far Rockaway-Mott Av,A,"6501,4597",H11,209,209,IND,FALSE,Viaduct,40.603995,-73.755405,Manhattan,Last Stop,1,1,1,,POINT (-73.755405 40.603995)
Q,Rockaway,Beach 25 St,A,"6501,4748",H10,208,208,IND,FALSE,Viaduct,40.600066,-73.761353,Manhattan,Far Rockaway,0,0,0,,POINT (-73.761353 40.600066)
Q,Rockaway,Beach 36 St,A,"6499,4880",H09,207,207,IND,FALSE,Viaduct,40.595398,-73.768175,Manhattan,Far Rockaway,0,0,0,,POINT (-73.768175 40.595398)
Q,Rockaway,Beach 44 St,A,"6496,5006",H08,206,206,IND,FALSE,Viaduct,40.592943,-73.776013,Manhattan,Far Rockaway,0,0,0,,POINT (-73.776013 40.592943)
Q,Rockaway,Beach 60 St,A,"6498,5131",H07,205,205,IND,FALSE,Viaduct,40.592374,-73.788522,Manhattan,Far Rockaway,0,0,0,,POINT (-73.788522 40.592374)
Q,Rockaway,Beach 67 St,A,"6495,5253",H06,204,204,IND,FALSE,Viaduct,40.590927,-73.796924,Manhattan,Far Rockaway,1,1,1,,POINT (-73.796924 40.590927)
Q,Rockaway,Beach 90 St,A S,"6376,5591",H12,200,200,IND,FALSE,Viaduct,40.588034,-73.813641,Inbound,Rockaway Park,0,0,0,,POINT (-73.813641 40.588034)
Q,Rockaway,Beach 98 St,A S,"6269,5696",H13,201,201,IND,FALSE,Viaduct,40.585307,-73.820558,Inbound,Rockaway Park,0,0,0,,POINT (-73.820558 40.585307)
Q,Rockaway,Beach 105 St,A S,"6164,5801",H14,202,202,IND,FALSE,Viaduct,40.583209,-73.827559,Inbound,Rockaway Park,0,0,0,,POINT (-73.827559 40.583209)
Q,Rockaway,Rockaway Park-Beach 116 St,A S,"6058,5909",H15,203,203,IND,FALSE,At Grade,40.580903,-73.835592,Inbound,Last Stop,1,1,1,,POINT (-73.835592 40.580903)
SI,Staten Island,St George,SIR,"1758,6613",S31,501,501,SIR,FALSE,Open Cut,40.643748,-74.073643,Last Stop,South Shore,1,1,1,,POINT (-74.073643 40.643748)
SI,Staten Island,Tompkinsville,SIR,"1758,6730",S30,502,502,SIR,FALSE,At Grade,40.636949,-74.074835,Ferry,South Shore,0,0,0,,POINT (-74.074835 40.636949)
SI,Staten Island,Stapleton,SIR,"1755,6815",S29,503,503,SIR,FALSE,Elevated,40.627915,-74.075162,Ferry,South Shore,0,0,0,,POINT (-74.075162 40.627915)
SI,Staten Island,Clifton,SIR,"1756,6900",S28,504,504,SIR,FALSE,Elevated,40.621319,-74.071402,Ferry,South Shore,0,0,0,,POINT (-74.071402 40.621319)
SI,Staten Island,Grasmere,SIR,"1729,6996",S27,505,505,SIR,FALSE,Open Cut,40.603117,-74.084087,Ferry,South Shore,0,0,0,,POINT (-74.084087 40.603117)
SI,Staten Island,Old Town,SIR,"1665,7054",S26,506,506,SIR,FALSE,Embankment,40.596612,-74.087368,Ferry,South Shore,0,0,0,,POINT (-74.087368 40.596612)
SI,Staten Island,Dongan Hills,SIR,"1597,7115",S25,507,507,SIR,FALSE,Embankment,40.588849,-74.09609,Ferry,South Shore,1,1,1,,POINT (-74.09609 40.588849)
SI,Staten Island,Jefferson Av,SIR,"1529,7184",S24,508,508,SIR,FALSE,Embankment,40.583591,-74.103338,Ferry,South Shore,0,0,0,,POINT (-74.103338 40.583591)
SI,Staten Island,Grant City,SIR,"1481,7246",S23,509,509,SIR,FALSE,Open Cut,40.578965,-74.109704,Ferry,South Shore,0,0,0,,POINT (-74.109704 40.578965)
SI,Staten Island,New Dorp,SIR,"1412,7305",S22,510,510,SIR,FALSE,Open Cut,40.57348,-74.11721,Ferry,South Shore,1,1,1,,POINT (-74.11721 40.57348)
SI,Staten Island,Oakwood Heights,SIR,"1352,7365",S21,511,511,SIR,FALSE,Open Cut,40.56511,-74.12632,Ferry,South Shore,0,0,0,,POINT (-74.12632 40.56511)
SI,Staten Island,Bay Terrace,SIR,"1287,7428",S20,512,512,SIR,FALSE,Embankment,40.5564,-74.136907,Ferry,South Shore,0,0,0,,POINT (-74.136907 40.5564)
SI,Staten Island,Great Kills,SIR,"1223,7493",S19,513,513,SIR,FALSE,Open Cut,40.551231,-74.151399,Ferry,South Shore,1,1,1,,POINT (-74.151399 40.551231)
SI,Staten Island,Eltingville,SIR,"1158,7559",S18,514,514,SIR,FALSE,Embankment,40.544601,-74.16457,Ferry,South Shore,0,0,0,,POINT (-74.16457 40.544601)
SI,Staten Island,Annadale,SIR,"1101,7622",S17,515,515,SIR,FALSE,Open Cut,40.54046,-74.178217,Ferry,South Shore,0,0,0,,POINT (-74.178217 40.54046)
SI,Staten Island,Huguenot,SIR,"1033,7686",S16,516,516,SIR,FALSE,Open Cut,40.533674,-74.191794,Ferry,South Shore,0,0,0,,POINT (-74.191794 40.533674)
SI,Staten Island,Prince's Bay,SIR,"967,7744",S15,517,517,SIR,FALSE,Open Cut,40.525507,-74.200064,Ferry,South Shore,0,0,0,,POINT (-74.200064 40.525507)
SI,Staten Island,Pleasant Plains,SIR,"907,7814",S14,518,518,SIR,FALSE,Embankment,40.52241,-74.217847,Ferry,South Shore,0,0,0,,POINT (-74.217847 40.52241)
SI,Staten Island,Richmond Valley,SIR,"844,7879",S13,519,519,SIR,FALSE,Open Cut,40.519631,-74.229141,Ferry,Tottenville,0,0,0,,POINT (-74.229141 40.519631)
SI,Staten Island,Arthur Kill,SIR,"784,7939",S11,523,523,SIR,FALSE,At Grade,40.516578,-74.242096,Ferry,Tottenville,1,1,1,,POINT (-74.242096 40.516578)
SI,Staten Island,Tottenville,SIR,"719,8002",S09,522,522,SIR,FALSE,At Grade,40.512764,-74.251961,Ferry,Last Stop,1,1,1,,POINT (-74.251961 40.512764)